City_ID,City,Lat,Lng,Max Temp,Humidity,Cloudiness,Wind Speed,Country,Date
0,grytviken,-54.2811,-36.5092,32.0,95,63,5.7,GS,2024-06-07
1,waitangi,-43.9535,-176.5597,48.2,83,10,3.58,NZ,2024-06-07
2,adamstown,-25.066,-130.1015,73.4,71,100,6.17,PN,2024-06-07
3,petropavlovsk-kamchatsky,53.0452,158.6483,64.4,22,0,4.0,RU,2024-06-07
4,berezovyy,51.6667,135.7,39.2,98,100,1.03,RU,2024-06-07
5,west island,-12.1568,96.8225,84.2,79,32,8.23,CC,2024-06-07
6,olonkinbyen,70.9221,-8.7187,33.8,93,71,4.15,SJ,2024-06-07
7,praia da vitoria,38.7333,-27.0667,62.6,94,40,4.76,PT,2024-06-07
8,touros,-5.1989,-35.4608,75.2,92,76,4.28,BR,2024-06-07
9,turbat,26.0023,63.044,86.0,75,4,2.23,PK,2024-06-07
10,tiksi,71.6872,128.8694,50.0,63,40,1.82,RU,2024-06-07
11,port-aux-francais,-49.35,70.2167,41.0,79,74,4.49,TF,2024-06-07
12,tojsici,44.5011,18.7856,53.6,100,0,0.51,BA,2024-06-07
13,rongelap,11.1635,166.8941,82.4,82,59,8.13,MH,2024-06-07
14,acarau,-2.8856,-40.12,78.8,87,65,5.15,BR,2024-06-07
15,birzebbuga,35.8258,14.5269,66.2,82,0,0.0,MT,2024-06-07
16,newman,37.3138,-121.0208,89.6,34,0,2.24,US,2024-06-07
17,ushuaia,-54.8,-68.3,26.6,68,0,2.06,AR,2024-06-07
18,conceicao da barra,-18.5933,-39.7322,69.8,92,33,1.9,BR,2024-06-07
19,wabag,-5.4781,143.7021,64.4,85,99,1.46,PG,2024-06-07
20,invercargill,-46.4,168.35,51.8,98,100,3.13,NZ,2024-06-07
21,bengkulu,-3.8004,102.2655,84.2,72,10,0.98,ID,2024-06-07
22,port mathurin,-19.6833,63.4167,75.2,64,68,10.67,MU,2024-06-07
23,mirnyy,62.5353,113.9611,44.6,69,100,1.79,RU,2024-06-07
24,ust-nera,64.5667,143.2,73.4,22,88,2.96,RU,2024-06-07
25,zdvinsk,54.7021,78.661,60.8,96,100,3.0,RU,2024-06-07
26,queenstown,-31.8976,26.8753,44.6,81,96,8.45,ZA,2024-06-07
27,nukus,42.4531,59.6103,80.6,32,0,0.0,UZ,2024-06-07
28,papatowai,-46.5619,169.4708,51.8,93,100,3.9,NZ,2024-06-07
29,susuman,62.7833,148.1667,69.8,28,96,8.05,RU,2024-06-07
30,weno,7.4515,151.8468,86.0,84,40,2.06,FM,2024-06-07
31,utrik,11.2278,169.8474,82.4,81,87,7.87,MH,2024-06-07
32,nemuro,43.3236,145.575,51.8,83,2,6.28,JP,2024-06-07
33,edinburgh of the seven seas,-37.0676,-12.3116,60.8,88,47,13.23,SH,2024-06-07
34,turpan,42.9333,89.1667,91.4,9,100,0.92,CN,2024-06-07
35,yellowknife,62.456,-114.3525,48.2,87,100,8.23,CA,2024-06-07
36,mana,5.6592,-53.7767,78.8,86,100,3.58,GF,2024-06-07
37,blackmans bay,-43.0167,147.3167,51.8,73,63,0.89,AU,2024-06-07
38,murud,18.3258,72.965,82.4,78,94,1.22,IN,2024-06-07
39,lubango,-14.9172,13.4925,48.2,61,3,0.0,AO,2024-06-07
40,tamanrasset,22.785,5.5228,84.2,16,6,8.23,DZ,2024-06-07
41,isafjordur,66.0755,-23.124,33.8,96,99,9.49,IS,2024-06-07
42,puerto ayora,-0.7393,-90.3518,69.8,96,25,3.38,EC,2024-06-07
43,namibe,-15.1961,12.1522,62.6,69,2,2.53,AO,2024-06-07
44,nchelenge,-9.3451,28.734,60.8,48,98,1.82,ZM,2024-06-07
45,miri,4.4148,114.0089,86.0,74,20,2.06,MY,2024-06-07
46,bonthe,7.5264,-12.505,78.8,88,100,2.44,SL,2024-06-07
47,salalah,17.0151,54.0924,86.0,84,75,3.09,OM,2024-06-07
48,pangody,65.85,74.4859,32.0,86,99,1.97,RU,2024-06-07
49,yuzhno-kurilsk,44.0306,145.8556,59.0,63,7,3.57,RU,2024-06-07
50,vargashi,55.3556,65.8467,62.6,83,20,3.97,RU,2024-06-07
51,divnomorskoye,44.5011,38.1353,68.0,74,44,1.29,RU,2024-06-07
52,kudahuvadhoo,2.6708,72.8944,82.4,75,100,3.62,MV,2024-06-07
53,puerto natales,-51.7236,-72.4875,30.2,96,97,1.06,CL,2024-06-07
54,murfreesboro,35.8456,-86.3903,75.2,74,75,0.0,US,2024-06-07
55,kodiak,57.79,-152.4072,48.2,81,100,4.12,US,2024-06-07
56,vallenar,-28.5708,-70.7581,66.2,41,0,0.58,CL,2024-06-07
57,george town,5.4112,100.3354,87.8,66,20,3.6,MY,2024-06-07
58,luderitz,-26.6481,15.1594,55.4,77,0,4.84,NA,2024-06-07
59,el bayadh,33.6832,1.0193,73.4,33,44,10.17,DZ,2024-06-07
60,east lismore,-28.8193,153.2874,66.2,55,0,2.95,AU,2024-06-07
61,banepa,27.6298,85.5214,73.4,73,40,1.03,NP,2024-06-07
62,bay village,41.4848,-81.9221,69.8,57,40,4.63,US,2024-06-07
63,mayya,61.7333,130.2811,71.6,30,95,3.97,RU,2024-06-07
64,bilibino,68.0546,166.4372,41.0,40,99,6.76,RU,2024-06-07
65,georgetown,5.4112,100.3354,87.8,66,20,3.6,MY,2024-06-07
66,pervomayskoye,43.919,46.7102,77.0,61,77,7.41,RU,2024-06-07
67,lompoc,34.6391,-120.4579,59.0,92,75,5.66,US,2024-06-07
68,nikolayevsk-on-amure,53.1406,140.73,44.6,85,100,1.71,RU,2024-06-07
69,albany,42.6001,-73.9662,62.6,94,4,1.52,US,2024-06-07
70,tolanaro,-25.0319,46.9987,71.6,88,0,2.06,MG,2024-06-07
71,samfya,-11.3649,29.5565,57.2,64,95,1.99,ZM,2024-06-07
72,arkhangel'sk,64.5401,40.5433,57.2,77,40,3.0,RU,2024-06-07
73,socorro,31.6546,-106.3033,98.6,7,75,2.06,US,2024-06-07
74,broken hill,-31.95,141.4333,57.2,57,0,5.61,AU,2024-06-07
75,tazacorte,28.629,-17.9293,64.4,90,0,4.02,ES,2024-06-07
76,sarande,39.8756,20.0053,75.2,68,0,2.11,AL,2024-06-07
77,kilindoni,-7.9139,39.6668,80.6,71,96,4.95,TZ,2024-06-07
78,saipan,15.1355,145.701,86.0,70,40,8.23,MP,2024-06-07
79,longyearbyen,78.2186,15.6401,39.2,65,0,2.06,SJ,2024-06-07
80,hermanus,-34.4187,19.2345,53.6,78,100,3.71,ZA,2024-06-07
81,novo selo,41.4139,22.8811,64.4,70,4,1.63,MK,2024-06-07
82,eyl,7.9803,49.8164,82.4,68,4,7.98,SO,2024-06-07
83,labytnangi,66.6572,66.4183,41.0,76,78,4.87,RU,2024-06-07
84,thompson,55.7435,-97.8558,41.0,100,75,3.09,CA,2024-06-07
85,vanimo,-2.6741,141.3028,86.0,70,67,2.13,PG,2024-06-07
86,ribeira grande,38.5167,-28.7,64.4,81,100,4.02,PT,2024-06-07
87,klyuchi,52.2667,79.1667,69.8,70,100,5.82,RU,2024-06-07
88,prince rupert,54.3161,-130.3201,51.8,81,0,5.66,CA,2024-06-07
89,jwaneng,-24.6004,24.7303,39.2,80,0,4.65,BW,2024-06-07
90,bodo,67.28,14.405,48.2,97,75,3.09,NO,2024-06-07
91,happy valley-goose bay,53.3168,-60.3315,60.8,77,20,2.06,CA,2024-06-07
92,san juan de miraflores,-12.1629,-76.9635,62.6,88,71,3.54,PE,2024-06-07
93,college,64.8569,-147.8028,64.4,47,75,2.06,US,2024-06-07
94,aioun,16.6614,-9.6149,96.8,18,66,5.56,MR,2024-06-07
95,chaykovskiy,56.7686,54.1148,64.4,89,8,1.71,RU,2024-06-07
96,castillos,-34.1667,-53.8333,57.2,97,100,0.62,UY,2024-06-07
97,diyarbakir,37.9158,40.2189,69.8,46,0,1.03,TR,2024-06-07
98,bethel,41.3712,-73.414,69.8,85,2,2.14,US,2024-06-07
99,akobo,7.4344,3.9497,73.4,99,100,1.69,NG,2024-06-07
100,udachny,66.4167,112.4,51.8,47,100,3.46,RU,2024-06-07
101,ancud,-41.8697,-73.8203,51.8,92,78,4.31,CL,2024-06-07
102,argo,37.6333,22.7333,71.6,67,0,2.52,GR,2024-06-07
103,lautoka,-17.6167,177.4667,82.4,51,40,5.66,FJ,2024-06-07
104,badger,64.8,-147.5333,66.2,46,75,2.06,US,2024-06-07
105,parry sound,45.3501,-80.033,64.4,68,94,2.38,CA,2024-06-07
106,sitka,57.0531,-135.33,51.8,76,75,3.09,US,2024-06-07
107,robbah,33.2797,6.9098,82.4,27,3,4.31,DZ,2024-06-07
108,halifax,44.6453,-63.5724,55.4,95,77,4.02,CA,2024-06-07
109,okhotsk,59.3833,143.3,42.8,76,100,2.4,RU,2024-06-07
110,haiku-pauwela,20.9219,-156.3051,78.8,73,20,6.69,US,2024-06-07
111,colonia,50.9333,6.95,50.0,84,0,1.03,DE,2024-06-07
112,egilsstadir,65.2653,-14.3948,33.8,93,100,2.06,IS,2024-06-07
113,saint-valery-en-caux,49.8667,0.7333,51.8,88,13,3.66,FR,2024-06-07
114,arraial do cabo,-22.9661,-42.0278,71.6,85,93,6.87,BR,2024-06-07
115,callao,-12.0667,-77.15,62.6,82,100,4.63,PE,2024-06-07
116,lihue,21.9789,-159.3672,80.6,70,100,5.14,US,2024-06-07
117,whitefish,48.4111,-114.3376,73.4,33,0,3.09,US,2024-06-07
118,tukrah,32.5341,20.5791,69.8,95,18,1.29,LY,2024-06-07
119,tambopata,-12.7333,-69.1833,71.6,68,7,0.53,PE,2024-06-07
120,vadso,70.0744,29.7487,44.6,87,20,7.2,NO,2024-06-07
121,wanxian,30.8039,108.3897,86.0,54,100,0.92,CN,2024-06-07
122,macas,-2.3167,-78.1167,66.2,94,97,0.93,EC,2024-06-07
123,mejit,10.2753,170.8646,82.4,84,99,8.01,MH,2024-06-07
124,rehoboth,-23.3167,17.0833,37.4,78,0,2.38,NA,2024-06-07
125,saint-pierre,-21.3393,55.4781,68.0,73,20,4.63,RE,2024-06-07
126,stephenville,32.2207,-98.2023,78.8,64,0,2.06,US,2024-06-07
127,mega,4.05,38.3,57.2,92,74,4.32,ET,2024-06-07
128,bredasdorp,-34.5322,20.0403,53.6,87,100,2.38,ZA,2024-06-07
129,nyurba,63.2842,118.3319,62.6,53,99,3.07,RU,2024-06-07
130,iskateley,67.6803,53.1512,35.6,98,100,4.02,RU,2024-06-07
131,keflavik,64.0049,-22.5624,41.0,81,75,9.77,IS,2024-06-07
132,bardai,11.65,7.2333,77.0,71,97,3.72,NG,2024-06-07
133,yeosu,34.7546,127.6599,69.8,74,100,3.31,KR,2024-06-07
134,avarua,-21.2078,-159.775,73.4,56,9,3.09,CK,2024-06-07
135,jiayuguan,39.8167,98.3,75.2,22,100,4.04,CN,2024-06-07
136,cotonou,6.3654,2.4183,78.8,89,40,1.03,BJ,2024-06-07
137,chos malal,-37.3781,-70.2709,50.0,80,100,2.2,AR,2024-06-07
138,margaret river,-33.95,115.0667,62.6,45,41,1.66,AU,2024-06-07
139,makurazaki,31.2667,130.3167,73.4,63,58,5.42,JP,2024-06-07
140,vilyuchinsk,52.9306,158.4028,66.2,46,82,1.21,RU,2024-06-07
141,tralee,52.2704,-9.7026,46.4,94,40,1.62,IE,2024-06-07
142,saint-francois,46.4154,3.9054,57.2,100,83,1.54,FR,2024-06-07
143,topolobampo,25.6,-109.05,84.2,51,20,4.63,MX,2024-06-07
144,phang nga,8.4509,98.5298,89.6,57,92,1.57,TH,2024-06-07
145,nasir,15.5894,32.5634,93.2,27,3,4.94,SD,2024-06-07
146,homer,59.6425,-151.5483,53.6,57,40,3.6,US,2024-06-07
147,villa angela,-27.5738,-60.7153,66.2,75,0,3.04,AR,2024-06-07
148,wailua homesteads,22.0669,-159.378,78.8,76,100,5.14,US,2024-06-07
149,hamilton,39.1834,-84.5333,68.0,60,20,2.06,US,2024-06-07
150,sorong,-0.8833,131.25,84.2,71,39,2.28,ID,2024-06-07
151,menaka,15.9182,2.4022,91.4,44,38,7.47,ML,2024-06-07
152,chipinge,-20.1883,32.6236,62.6,42,0,2.26,ZW,2024-06-07
153,ilulissat,69.2167,-51.1,33.8,93,100,6.17,GL,2024-06-07
154,malango,-2.9627,119.9001,78.8,70,88,1.67,ID,2024-06-07
155,puerto aysen,-45.4,-72.7,44.6,99,100,0.92,CL,2024-06-07
156,port lincoln,-34.7333,135.8667,59.0,62,4,1.2,AU,2024-06-07
157,monteros,-27.1674,-65.4983,60.8,67,0,1.0,AR,2024-06-07
158,enewetak,11.3474,162.3373,82.4,82,73,7.58,MH,2024-06-07
159,beira,-19.8436,34.8389,68.0,81,0,3.17,MZ,2024-06-07
160,lebu,-37.6167,-73.65,55.4,95,100,3.71,CL,2024-06-07
161,santa helena de goias,-17.8136,-50.5969,66.2,53,0,1.11,BR,2024-06-07
162,carnarvon,-24.8667,113.6333,73.4,61,0,3.8,AU,2024-06-07
163,tchintabaraden,15.8969,5.7985,86.0,54,65,6.92,NE,2024-06-07
164,masuguru,-11.3667,38.4167,66.2,97,100,0.82,TZ,2024-06-07
165,cannonvale,-20.2833,148.7,69.8,43,0,3.41,AU,2024-06-07
166,turkmenbasy,40.0222,52.9552,69.8,30,0,2.06,TM,2024-06-07
167,tsiombe,-25.3,45.4833,66.2,77,0,1.3,MG,2024-06-07
168,labrador city,52.9463,-66.9114,64.4,52,20,2.57,CA,2024-06-07
169,xiuyan,40.2928,123.2744,71.6,53,100,5.05,CN,2024-06-07
170,penha,-26.7694,-48.6458,64.4,100,0,2.57,BR,2024-06-07
171,phan thiet,10.9333,108.1,89.6,62,100,4.44,VN,2024-06-07
172,waingapu,-9.6567,120.2641,84.2,68,44,7.15,ID,2024-06-07
173,paicandu,-23.4575,-52.0486,71.6,60,0,4.63,BR,2024-06-07
174,iqaluit,63.7506,-68.5145,32.0,93,75,1.54,CA,2024-06-07
175,korla,41.7597,86.1469,80.6,18,99,1.56,CN,2024-06-07
176,ghat,24.9647,10.1728,86.0,26,18,2.87,LY,2024-06-07
177,lucapa,-8.4192,20.7447,68.0,47,85,0.98,AO,2024-06-07
178,natchitoches,31.7668,-93.1335,75.2,100,0,0.0,US,2024-06-07
179,qaqortoq,60.7167,-46.0333,39.2,97,100,4.81,GL,2024-06-07
180,maba,24.6841,113.5984,75.2,83,100,0.25,CN,2024-06-07
181,whitehorse,60.7161,-135.0538,57.2,32,20,7.72,CA,2024-06-07
182,la'ie,21.6477,-157.9253,80.6,79,93,1.79,US,2024-06-07
183,faya-largeau,17.9257,19.1043,93.2,13,23,5.25,TD,2024-06-07
184,vorgashor,67.5833,63.95,28.4,95,78,1.21,RU,2024-06-07
185,fale old settlement,-9.3852,-171.2468,84.2,76,69,5.7,TK,2024-06-07
186,aykhal,66.0,111.5,51.8,48,100,3.53,RU,2024-06-07
187,sandnessjoen,66.0217,12.6316,46.4,77,100,3.92,NO,2024-06-07
188,persembe,41.0656,37.7714,64.4,76,8,2.72,TR,2024-06-07
189,sychevka,55.8252,34.2736,59.0,92,100,5.01,RU,2024-06-07
190,ustka,54.5805,16.8619,50.0,88,21,1.74,PL,2024-06-07
191,maumere,-8.6199,122.2111,82.4,73,63,2.31,ID,2024-06-07
192,jamestown,42.097,-79.2353,62.6,67,20,2.57,US,2024-06-07
193,saint-philippe,-21.3585,55.7679,68.0,80,50,5.19,RE,2024-06-07
194,the pas,53.8251,-101.2541,53.6,66,75,6.69,CA,2024-06-07
195,chonchi,-42.6128,-73.8092,53.6,92,79,2.22,CL,2024-06-07
196,al qusayr,34.5091,36.5798,82.4,25,0,1.91,SY,2024-06-07
197,takoradi,4.8845,-1.7554,77.0,89,100,3.27,GH,2024-06-07
198,arinos,-15.9169,-46.1056,66.2,72,31,0.68,BR,2024-06-07
199,fukuecho,32.6881,128.8419,75.2,60,75,3.09,JP,2024-06-07
200,hawaiian paradise park,19.5933,-154.9731,78.8,76,100,3.6,US,2024-06-07
201,traralgon,-38.1833,146.5333,60.8,64,77,2.72,AU,2024-06-07
202,stanley,54.868,-1.6985,42.8,86,0,1.54,GB,2024-06-07
203,marand,38.4329,45.7749,69.8,35,0,1.21,IR,2024-06-07
204,sunnyside,46.3237,-120.0087,86.0,21,0,3.09,US,2024-06-07
205,sohbatpur,28.5202,68.5434,95.0,29,100,4.34,PK,2024-06-07
206,new norfolk,-42.7826,147.0587,53.6,66,53,0.79,AU,2024-06-07
207,port alfred,-33.5906,26.891,59.0,89,100,10.84,ZA,2024-06-07
208,punta arenas,-53.15,-70.9167,35.6,93,75,1.54,CL,2024-06-07
209,akureyri,65.6835,-18.0878,39.2,87,75,10.29,IS,2024-06-07
210,port macquarie,-31.4333,152.9167,64.4,59,6,1.85,AU,2024-06-07
211,vila franca do campo,37.7167,-25.4333,64.4,99,94,2.88,PT,2024-06-07
212,san patricio,28.017,-97.5169,84.2,73,53,2.6,US,2024-06-07
213,dzuunharaa,48.8523,106.4579,62.6,47,82,2.66,MN,2024-06-07
214,sao vicente,-23.9631,-46.3919,66.2,26,5,1.46,BR,2024-06-07
215,prievidza,48.7745,18.6275,59.0,95,100,1.1,SK,2024-06-07
216,alofi,-19.0595,-169.9187,77.0,65,75,7.2,NU,2024-06-07
217,anadyr,64.75,177.4833,33.8,80,75,8.0,RU,2024-06-07
218,narrabri,-30.3167,149.7833,51.8,89,93,3.36,AU,2024-06-07
219,flying fish cove,-10.4217,105.6791,82.4,78,75,5.66,CX,2024-06-07
220,st. john's,47.5649,-52.7093,48.2,95,100,2.06,CA,2024-06-07
221,tura,25.5198,90.2201,84.2,81,0,1.39,IN,2024-06-07
222,nova sintra,14.8667,-24.7167,75.2,76,3,1.98,CV,2024-06-07
223,nishinoomote,30.7333,131.0,73.4,83,75,4.12,JP,2024-06-07
224,dudinka,69.4058,86.1778,30.2,96,100,8.05,RU,2024-06-07
225,east end,34.5507,-92.341,77.0,87,0,1.31,US,2024-06-07
226,balqash,46.8481,74.995,77.0,38,40,2.0,KZ,2024-06-07
227,ginir,7.1333,40.7,57.2,90,7,2.03,ET,2024-06-07
228,heihe,50.2441,127.4902,71.6,54,88,7.62,CN,2024-06-07
229,uturoa,-16.7333,-151.4333,80.6,76,80,1.44,PF,2024-06-07
230,belmonte,-15.8631,-38.8828,73.4,85,4,2.17,BR,2024-06-07
231,galliano,29.4422,-90.2992,75.2,94,0,0.0,US,2024-06-07
232,gole,52.1665,20.4937,57.2,92,100,1.74,PL,2024-06-07
233,tazovsky,67.4667,78.7,32.0,90,100,6.47,RU,2024-06-07
234,tual,-5.6667,132.75,78.8,84,48,9.79,ID,2024-06-07
235,constantia,44.1833,28.65,59.0,81,0,1.2,RO,2024-06-07
236,mersa matruh,31.3525,27.2453,73.4,68,0,0.0,EG,2024-06-07
237,luorong,24.4058,109.6086,78.8,76,98,2.1,CN,2024-06-07
238,kruisfontein,-34.0033,24.7314,57.2,84,92,9.65,ZA,2024-06-07
239,ostersund,63.1792,14.6357,42.8,81,19,3.6,SE,2024-06-07
240,enshi,30.3,109.4833,78.8,64,100,1.12,CN,2024-06-07
241,villagarzon,1.0375,-76.6267,75.2,97,95,1.86,CO,2024-06-07
242,ola,59.5833,151.2833,66.2,79,100,4.4,RU,2024-06-07
243,tame,6.461,-71.73,73.4,97,94,1.2,CO,2024-06-07
244,mae ramat,16.984,98.5166,80.6,98,100,0.64,TH,2024-06-07
245,taghazout,30.5426,-9.7112,66.2,90,100,0.61,MA,2024-06-07
246,castro,-24.7911,-50.0119,55.4,80,43,0.92,BR,2024-06-07
247,mariental,-24.6333,17.9667,42.8,71,0,4.04,NA,2024-06-07
248,sayaxche,16.5167,-90.1667,77.0,83,100,2.1,GT,2024-06-07
249,puerto deseado,-47.7503,-65.8938,44.6,92,100,5.14,AR,2024-06-07
250,zheshart,62.0731,49.5733,59.0,63,0,2.31,RU,2024-06-07
251,port elizabeth,-33.918,25.5701,57.2,85,20,14.92,ZA,2024-06-07
252,luganville,-15.5333,167.1667,80.6,69,61,5.25,VU,2024-06-07
253,kenai,60.5544,-151.2583,51.8,86,75,4.63,US,2024-06-07
254,samrala,30.8367,76.1897,91.4,23,0,3.28,IN,2024-06-07
255,zaltan,32.947,11.8665,68.0,51,0,2.08,LY,2024-06-07
256,rumonge,-3.9736,29.4386,73.4,64,99,1.63,BI,2024-06-07
257,punta de bombon,-17.1717,-71.7931,62.6,85,67,1.83,PE,2024-06-07
258,wang nam yen,13.5033,102.1812,86.0,64,44,4.96,TH,2024-06-07
259,nehe,48.4833,124.8333,73.4,36,100,7.0,CN,2024-06-07
260,colonia menno,-22.3667,-59.8167,69.8,45,0,4.59,PY,2024-06-07
261,nichlaul,27.3167,83.7333,95.0,38,0,3.29,IN,2024-06-07
262,talnakh,69.4865,88.3972,28.4,88,100,6.58,RU,2024-06-07
263,figuig (centre),32.1089,-1.2286,75.2,17,36,2.44,MA,2024-06-07
264,banfora,10.6333,-4.7667,80.6,74,93,2.65,BF,2024-06-07
265,mogocha,53.7333,119.7667,53.6,97,100,4.86,RU,2024-06-07
266,naze,28.3667,129.4833,77.0,83,90,5.59,JP,2024-06-07
267,portland,45.5234,-122.6762,75.2,47,20,3.6,US,2024-06-07
268,kaffrine,14.1059,-15.5508,73.4,57,69,3.51,SN,2024-06-07
269,kingston,17.997,-76.7936,80.6,89,75,5.14,JM,2024-06-07
270,hasaki,35.7333,140.8333,75.2,68,100,3.98,JP,2024-06-07
271,pariyapuram,10.9561,76.1916,75.2,94,100,0.25,IN,2024-06-07
272,coxim,-18.5067,-54.76,68.0,49,0,1.2,BR,2024-06-07
273,ugoofaaru,5.6667,73.0,84.2,75,100,4.34,MV,2024-06-07
274,paola,39.3599,16.0396,64.4,89,43,0.87,IT,2024-06-07
275,arroyo de la luz,39.4851,-6.584,69.8,56,100,3.44,ES,2024-06-07
276,san antonio de pale,-1.4014,5.6325,77.0,81,92,5.43,GQ,2024-06-07
277,la ronge,55.1001,-105.2842,48.2,66,100,7.2,CA,2024-06-07
278,fort bragg,35.139,-79.006,77.0,79,20,2.57,US,2024-06-07
279,vernon,50.2581,-119.2691,69.8,37,40,0.51,CA,2024-06-07
280,coahuayana de hidalgo,18.7,-103.6583,73.4,89,0,0.92,MX,2024-06-07
281,puerto maldonado,-12.6,-69.1833,71.6,69,6,0.33,PE,2024-06-07
282,luninyets,52.2472,26.8047,51.8,91,99,1.63,BY,2024-06-07
283,cill airne,52.05,-9.5167,44.6,98,31,1.49,IE,2024-06-07
284,christchurch,-43.5333,172.6333,59.0,49,5,1.03,NZ,2024-06-07
285,mount pearl,47.5166,-52.7813,48.2,95,100,2.06,CA,2024-06-07
286,northam,51.0333,-4.2167,50.0,89,26,3.67,GB,2024-06-07
287,rodniki,57.1051,41.7305,60.8,95,90,2.62,RU,2024-06-07
288,atafu village,-8.5421,-172.5159,84.2,74,9,3.81,TK,2024-06-07
289,winfield,37.2398,-96.9956,75.2,64,0,2.06,US,2024-06-07
290,canutama,-6.5339,-64.3831,80.6,68,97,0.72,BR,2024-06-07
291,lhokseumawe,5.1801,97.1507,78.8,84,100,2.33,ID,2024-06-07
292,brisas de zicatela,15.8369,-97.0419,84.2,79,40,3.6,MX,2024-06-07
293,serang,-6.1149,106.1502,87.8,59,36,0.51,ID,2024-06-07
294,olds,51.7834,-114.102,59.0,70,82,3.43,CA,2024-06-07
295,khovd,48.0056,91.6419,73.4,19,5,1.75,MN,2024-06-07
296,kununurra,-15.7667,128.7333,71.6,35,0,5.66,AU,2024-06-07
297,kavaratti,10.5669,72.642,82.4,84,99,3.7,IN,2024-06-07
298,ishigaki,24.3448,124.1572,84.2,79,75,5.14,JP,2024-06-07
299,forster,-32.1667,152.5167,64.4,58,0,1.96,AU,2024-06-07
300,cabo san lucas,22.8909,-109.9124,82.4,70,0,5.92,MX,2024-06-07
301,remedios,22.4947,-79.5458,82.4,91,96,8.3,CU,2024-06-07
302,saint-joseph,-21.3667,55.6167,66.2,79,23,5.48,RE,2024-06-07
303,greenwood,34.1668,-82.1165,75.2,52,0,2.06,US,2024-06-07
304,rosarito,32.3333,-117.0333,62.6,85,56,1.8,MX,2024-06-07
305,boli,45.7667,130.5167,75.2,55,100,4.32,CN,2024-06-07
306,borkum,53.5809,6.6915,46.4,77,100,5.33,DE,2024-06-07
307,bahia blanca,-38.7196,-62.2724,57.2,58,100,3.19,AR,2024-06-07
308,arco,45.9177,10.8867,64.4,89,93,1.82,IT,2024-06-07
309,bogotol,56.2078,89.5342,51.8,88,100,3.16,RU,2024-06-07
310,quelimane,-17.8786,36.8883,66.2,96,3,2.28,MZ,2024-06-07
311,byron bay,-28.65,153.6167,66.2,47,0,0.69,AU,2024-06-07
312,campbellton,48.0075,-66.6727,53.6,99,46,2.23,CA,2024-06-07
313,san andres,12.5847,-81.7006,84.2,84,20,2.06,CO,2024-06-07
314,noumea,-22.2763,166.4572,80.6,99,90,2.04,NC,2024-06-07
315,shushtar,32.0455,48.8567,95.0,12,0,2.38,IR,2024-06-07
316,kundiawa,-6.0167,144.9667,75.2,64,96,0.73,PG,2024-06-07
317,tindouf,27.6711,-8.1474,68.0,60,0,7.2,DZ,2024-06-07
318,nogliki,51.8333,143.1667,48.2,80,100,1.94,RU,2024-06-07
319,alburquerque,39.2208,-7.0023,69.8,54,99,1.35,ES,2024-06-07
320,greymouth,-42.4667,171.2,53.6,78,88,0.61,NZ,2024-06-07
321,aasiaat,68.7098,-52.8699,32.0,86,100,6.71,GL,2024-06-07
322,el calafate,-50.3408,-72.2768,33.8,85,99,0.49,AR,2024-06-07
323,prineville,44.2999,-120.8345,82.4,21,0,6.17,US,2024-06-07
324,san ignacio,17.1561,-89.0714,89.6,70,40,5.14,BZ,2024-06-07
325,arkalyk,50.2486,66.9114,68.0,74,45,7.05,KZ,2024-06-07
326,perth,-31.9333,115.8333,62.6,84,75,3.6,AU,2024-06-07
327,aswan,24.0934,32.907,95.0,14,0,3.6,EG,2024-06-07
328,okha,53.5739,142.9478,41.0,90,100,0.89,RU,2024-06-07
329,oliva de la frontera,38.276,-6.9187,66.2,53,100,1.07,ES,2024-06-07
330,broome,42.2506,-75.833,64.4,74,88,0.89,US,2024-06-07
331,untergriesbach,48.5743,13.6673,57.2,97,94,0.56,DE,2024-06-07
332,nabire,-3.3667,135.4833,86.0,65,39,2.49,ID,2024-06-07
333,carutapera,-1.195,-46.02,77.0,92,77,2.75,BR,2024-06-07
334,plouzane,48.3833,-4.6167,44.6,91,0,1.54,FR,2024-06-07
335,el bauga,18.262,33.9081,93.2,21,2,2.15,SD,2024-06-07
336,douglas,41.3,-96.167,68.0,45,0,0.0,US,2024-06-07
337,dongkan,33.9997,119.8308,77.0,44,100,3.53,CN,2024-06-07
338,juneau,58.3019,-134.4197,46.4,89,75,4.12,US,2024-06-07
339,namsos,64.4662,11.4957,44.6,100,100,1.03,NO,2024-06-07
340,surskoye,54.4821,46.7214,62.6,89,96,2.5,RU,2024-06-07
341,buurhakaba,2.8026,44.0781,71.6,93,44,3.01,SO,2024-06-07
342,vejle,55.7093,9.5357,37.4,88,100,3.23,DK,2024-06-07
343,thunder bay,48.4001,-89.3168,55.4,82,75,5.66,CA,2024-06-07
344,priob'ye,62.5206,65.5964,51.8,62,60,4.0,RU,2024-06-07
345,radomir,42.5444,22.9578,57.2,90,0,0.45,BG,2024-06-07
346,naifaru,5.4444,73.3657,84.2,77,100,4.86,MV,2024-06-07
347,tejen,37.3834,60.5054,86.0,11,0,2.87,TM,2024-06-07
348,champerico,14.3,-91.9167,78.8,93,100,3.29,GT,2024-06-07
349,torghay,49.6339,63.4981,73.4,63,54,5.77,KZ,2024-06-07
350,bischofshofen,47.4167,13.2167,59.0,96,100,1.61,AT,2024-06-07
351,chibougamau,49.9168,-74.3659,73.4,56,75,3.09,CA,2024-06-07
352,isiro,2.7739,27.616,68.0,99,100,0.96,CD,2024-06-07
353,the bottom,17.6259,-63.2492,80.6,82,77,5.11,BQ,2024-06-07
354,santo antonio do ica,-3.1022,-67.9397,71.6,99,61,0.63,BR,2024-06-07
355,geraldton,-28.7667,114.6,64.4,94,100,5.66,AU,2024-06-07
356,shchyolkino,45.4291,35.8223,73.4,81,8,5.75,UA,2024-06-07
357,holualoa,19.6228,-155.9522,77.0,81,40,7.72,US,2024-06-07
358,port sudan,19.6175,37.2164,87.8,49,1,3.79,SD,2024-06-07
359,rosario do sul,-30.2583,-54.9142,66.2,92,94,1.63,BR,2024-06-07
360,thinadhoo,0.5333,72.9333,82.4,70,6,2.24,MV,2024-06-07
361,noshiro,40.2039,140.0242,71.6,58,100,2.89,JP,2024-06-07
362,tionk essil,12.7856,-16.5217,78.8,81,74,3.79,SN,2024-06-07
363,burgersdorp,-30.9977,26.3286,39.2,85,87,5.63,ZA,2024-06-07
364,ulladulla,-35.35,150.4667,60.8,89,100,8.36,AU,2024-06-07
365,east london,-33.0153,27.9116,59.0,80,97,15.05,ZA,2024-06-07
366,opuwo,-18.0607,13.84,48.2,31,51,2.83,NA,2024-06-07
367,hithadhoo,-0.6,73.0833,82.4,72,12,1.5,MV,2024-06-07
368,peace river,56.2501,-117.286,62.6,39,75,2.57,CA,2024-06-07
369,khandyga,62.6667,135.6,75.2,26,99,1.46,RU,2024-06-07
370,port saint john's,-31.6229,29.5448,64.4,48,12,9.89,ZA,2024-06-07
371,hovd,48.0056,91.6419,73.4,19,5,1.75,MN,2024-06-07
372,pekan,3.4836,103.3996,86.0,71,54,1.1,MY,2024-06-07
373,saldanha,-33.0117,17.9442,55.4,86,86,1.5,ZA,2024-06-07
374,xiangtan,27.85,112.9,78.8,66,95,1.26,CN,2024-06-07
375,mermoz boabab,14.7065,-17.4758,75.2,88,40,5.14,SN,2024-06-07
376,at taj,24.2049,23.2857,80.6,17,0,4.22,LY,2024-06-07
377,lembeni,-3.7833,37.6167,60.8,91,74,1.38,TZ,2024-06-07
378,shuangjiang,26.1547,109.7138,78.8,62,94,1.43,CN,2024-06-07
379,fort st. john,56.2499,-120.8529,62.6,23,75,7.2,CA,2024-06-07
380,katsina-ala,7.1667,9.2833,77.0,90,100,4.18,NG,2024-06-07
381,xilin hot,43.9667,116.0333,69.8,38,100,9.17,CN,2024-06-07
382,liaoyang,41.2719,123.1731,73.4,47,100,4.69,CN,2024-06-07
383,bargarh,21.3333,83.6167,96.8,35,64,2.56,IN,2024-06-07
384,wickenburg,33.9686,-112.7296,98.6,12,100,4.41,US,2024-06-07
385,durazno,-33.4131,-56.5006,60.8,95,77,1.65,UY,2024-06-07
386,burang,30.25,81.1667,42.8,48,27,2.41,CN,2024-06-07
387,chulakkurgan,43.765,69.1814,80.6,37,12,4.21,KZ,2024-06-07
388,pudozh,61.8099,36.5345,57.2,73,51,1.34,RU,2024-06-07
389,tamandare,-8.7597,-35.1047,75.2,90,97,2.99,BR,2024-06-07
390,horta,38.5333,-28.6333,62.6,81,100,4.02,PT,2024-06-07
391,palikir - national government center,6.9248,158.1611,86.0,79,40,6.17,FM,2024-06-07
392,luanda,-8.8368,13.2343,71.6,83,75,3.09,AO,2024-06-07
393,kurchatov,51.6601,35.6521,62.6,96,74,6.08,RU,2024-06-07
394,novobod,39.0108,70.1508,60.8,55,5,1.54,TJ,2024-06-07
395,vorkuta,67.5,64.0,30.2,93,69,1.06,RU,2024-06-07
396,harnai,30.1005,67.9374,87.8,38,46,1.04,PK,2024-06-07
397,griffith,41.5284,-87.4237,69.8,48,100,7.72,US,2024-06-07
398,visby,57.6409,18.296,53.6,76,68,4.63,SE,2024-06-07
399,hammerfest,70.6634,23.6821,62.6,59,40,2.06,NO,2024-06-07
400,tete,-16.1564,33.5867,62.6,63,0,0.0,MZ,2024-06-07
401,kuusamo,65.9667,29.1833,53.6,82,100,5.14,FI,2024-06-07
402,gbarnga,6.9956,-9.4722,71.6,100,100,0.34,LR,2024-06-07
403,nanyamba,-10.6833,39.8333,66.2,99,100,1.46,TZ,2024-06-07
404,panaba,21.2833,-88.2667,84.2,73,2,3.91,MX,2024-06-07
405,lincheng,19.9078,109.6858,80.6,86,100,3.34,CN,2024-06-07
406,mil'kovo,55.6078,37.7956,62.6,86,35,2.36,RU,2024-06-07
407,al ghayzah,16.2079,52.176,82.4,84,58,0.67,YE,2024-06-07
408,pinarhisar,41.6242,27.52,66.2,65,19,3.68,TR,2024-06-07
409,bowen,-20.0167,148.2333,73.4,39,0,2.9,AU,2024-06-07
410,ceerigaabo,10.6162,47.368,64.4,78,2,4.99,SO,2024-06-07
411,machilipatnam,16.1667,81.1333,86.0,66,100,2.79,IN,2024-06-07
412,zyryanskoye,56.8306,86.6258,51.8,84,100,3.6,RU,2024-06-07
413,neiafu,-18.65,-173.9833,77.0,69,40,5.14,TO,2024-06-07
414,santo antonio do sudoeste,-26.0736,-53.7253,60.8,89,22,1.18,BR,2024-06-07
415,demyansk,57.643,32.466,55.4,90,44,3.18,RU,2024-06-07
416,malvan,16.0667,73.4667,80.6,82,100,2.96,IN,2024-06-07
417,port douglas,-16.4833,145.4667,73.4,60,0,3.58,AU,2024-06-07
418,general mosconi,-23.1851,-62.303,69.8,45,0,4.32,AR,2024-06-07
419,aral,40.5156,81.2636,77.0,26,100,2.14,CN,2024-06-07
420,suwayr,30.1171,40.3893,80.6,16,0,2.51,SA,2024-06-07
421,drama,41.1544,24.1394,64.4,84,22,2.55,GR,2024-06-07
422,ponta delgada,37.7333,-25.6667,64.4,77,20,5.14,PT,2024-06-07
423,padang,-0.9492,100.3543,86.0,71,91,0.95,ID,2024-06-07
424,masterton,-40.9597,175.6575,53.6,64,18,1.53,NZ,2024-06-07
425,paraiso,9.8383,-83.8656,66.2,100,100,1.04,CR,2024-06-07
426,pskov,57.8136,28.3496,50.0,87,0,2.68,RU,2024-06-07
427,greenville,35.6127,-77.3663,73.4,93,0,3.6,US,2024-06-07
428,dwarka,22.2394,68.9678,86.0,69,74,4.49,IN,2024-06-07
429,bel ombre,-4.6167,55.4167,78.8,94,75,8.23,SC,2024-06-07
430,timbuktu,16.7735,-3.0074,95.0,26,95,1.43,ML,2024-06-07
431,lata,40.1629,-8.3327,64.4,91,100,1.43,PT,2024-06-07
432,kourou,5.1552,-52.6478,78.8,94,93,1.75,GF,2024-06-07
433,pisco,-13.7,-76.2167,62.6,88,100,1.54,PE,2024-06-07
434,khark,29.2614,50.3306,86.0,71,22,4.02,IR,2024-06-07
435,machico,32.7,-16.7667,66.2,87,20,1.54,PT,2024-06-07
436,nagod,24.5667,80.6,102.2,22,0,4.81,IN,2024-06-07
437,jeddah,21.5169,39.2192,86.0,74,0,1.03,SA,2024-06-07
438,la passe,45.5549,-0.8967,59.0,88,100,4.36,FR,2024-06-07
439,kirensk,57.7853,108.1119,57.2,32,0,2.24,RU,2024-06-07
440,phan rang-thap cham,11.5667,108.9833,91.4,56,100,2.6,VN,2024-06-07
441,valdepenas,38.7621,-3.3848,68.0,37,85,2.77,ES,2024-06-07
442,polyarnyy,69.1989,33.4478,55.4,72,6,2.52,RU,2024-06-07
443,alice springs,-23.7,133.8833,59.0,47,0,6.17,AU,2024-06-07
444,anloga,5.7947,0.8973,78.8,87,100,4.18,GH,2024-06-07
445,fianarantsoa,-21.4333,47.0833,53.6,98,44,1.43,MG,2024-06-07
446,caazapa,-26.15,-56.4,66.2,76,16,1.79,PY,2024-06-07
447,choyr,46.3611,108.3611,66.2,23,59,5.16,MN,2024-06-07
448,inari,68.906,27.0288,60.8,62,65,1.52,FI,2024-06-07
449,chauk,20.8833,94.8167,86.0,69,98,5.17,MM,2024-06-07
450,olinda,-8.0089,-34.8553,75.2,100,100,3.6,BR,2024-06-07
451,iringa,-7.7667,35.7,51.8,93,91,1.89,TZ,2024-06-07
452,mindelo,16.8901,-24.9804,73.4,73,40,7.2,CV,2024-06-07
453,warmbad,-28.45,18.7333,44.6,95,0,2.18,NA,2024-06-07
454,candolim,15.5181,73.7626,77.0,94,100,0.51,IN,2024-06-07
455,gadani,25.1185,66.7299,86.0,80,52,7.87,PK,2024-06-07
456,ghazni,33.5536,68.4269,62.6,36,73,3.34,AF,2024-06-07
457,metlika,45.6472,15.3142,60.8,90,13,1.4,SI,2024-06-07
458,port-vila,-17.7338,168.3219,78.8,83,40,4.12,VU,2024-06-07
459,alexandroupoli,40.8475,25.8744,73.4,68,0,3.6,GR,2024-06-07
460,colares,38.7992,-9.4469,66.2,82,100,8.94,PT,2024-06-07
461,aleksandrovsk-sakhalinskiy,50.8975,142.1561,66.2,76,93,8.99,RU,2024-06-07
462,beterou,9.1992,2.2586,73.4,96,100,1.46,BJ,2024-06-07
463,gorontalo,0.5412,123.0595,84.2,82,47,1.16,ID,2024-06-07
464,bubaque,11.2833,-15.8333,80.6,75,100,2.93,GW,2024-06-07
465,caleta de carquin,-11.0925,-77.6267,64.4,85,27,4.32,PE,2024-06-07
466,puerto carreno,6.189,-67.4859,78.8,90,97,1.56,CO,2024-06-07
467,sodra sandby,56.5667,16.6167,39.2,90,10,3.03,SE,2024-06-07
468,i-n-salah,27.1935,2.4607,91.4,17,4,8.09,DZ,2024-06-07
469,blankenberge,51.3131,3.1323,48.2,66,22,4.68,BE,2024-06-07
470,cadale,2.7603,46.3222,78.8,85,43,7.91,SO,2024-06-07
471,skelleftea,64.7507,20.9528,46.4,100,72,2.06,SE,2024-06-07
472,zabol,32.25,67.25,68.0,17,2,5.39,AF,2024-06-07
473,bayanhongor,46.7167,100.1167,59.0,24,0,1.57,MN,2024-06-07
474,ende,-8.8432,121.6623,77.0,86,91,2.93,ID,2024-06-07
475,kitchener,43.4254,-80.5112,59.0,94,0,2.06,CA,2024-06-07
476,reggane,26.7158,0.1714,95.0,10,4,4.3,DZ,2024-06-07
477,dunedin,-45.8742,170.5036,55.4,64,21,1.39,NZ,2024-06-07
478,kabalo,-6.05,26.9167,68.0,43,81,0.96,CD,2024-06-07
479,tommot,58.9564,126.2925,60.8,36,1,4.4,RU,2024-06-07
480,pineda de mar,41.6276,2.6889,68.0,57,27,2.16,ES,2024-06-07
481,alaca,40.1683,34.8425,62.6,91,94,1.82,TR,2024-06-07
482,wesselsbron,-27.8549,26.3658,41.0,82,6,2.7,ZA,2024-06-07
483,adamovka,51.5223,59.9396,68.0,77,66,5.84,RU,2024-06-07
484,hoemul-li,41.4339,129.67,68.0,73,100,3.12,KP,2024-06-07
485,karukh,34.4811,62.5863,71.6,16,0,6.82,AF,2024-06-07
486,rio grande,-32.035,-52.0986,64.4,96,19,1.42,BR,2024-06-07
487,gadzhiyevo,69.2551,33.3362,55.4,72,5,2.18,RU,2024-06-07
488,hadibu,12.65,54.0333,84.2,77,41,5.12,YE,2024-06-07
489,kontcha,7.9667,12.2333,69.8,90,93,1.68,CM,2024-06-07
490,puerto baquerizo moreno,-0.9,-89.6,69.8,87,6,3.72,EC,2024-06-07
491,kismayo,-0.3582,42.5454,78.8,84,30,5.35,SO,2024-06-07
492,guiuan,11.0333,125.7247,84.2,76,100,4.28,PH,2024-06-07
493,pavlogradka,54.2024,73.5592,68.0,74,66,3.44,RU,2024-06-07
494,lianzhou,24.7811,112.3825,78.8,79,92,0.68,CN,2024-06-07
495,karasu,41.071,30.7854,66.2,82,14,1.53,TR,2024-06-07
496,aibonito,18.14,-66.266,73.4,60,100,1.67,PR,2024-06-07
497,shar'ya,58.3686,45.5144,62.6,96,100,1.79,RU,2024-06-07
498,phongsali,21.6833,102.1058,73.4,90,100,0.93,LA,2024-06-07
499,kirakira,-10.4544,161.9205,84.2,68,50,5.73,SB,2024-06-07
500,afaahiti,-17.75,-149.2833,80.6,76,10,3.2,PF,2024-06-07
501,nakamura,32.9833,132.9333,75.2,62,26,3.43,JP,2024-06-07
502,ghanzi,-21.5667,21.7833,41.0,65,1,4.83,BW,2024-06-07
503,bousso,10.4795,16.7117,82.4,60,79,2.77,TD,2024-06-07
504,cole harbour,44.6724,-63.4751,53.6,95,79,4.02,CA,2024-06-07
505,papao,-17.75,-149.55,82.4,76,13,2.87,PF,2024-06-07
506,tuy hoa,13.0833,109.3,96.8,45,100,4.08,VN,2024-06-07
507,genhe,50.7833,121.5167,50.0,96,100,3.36,CN,2024-06-07
508,kapuskasing,49.4169,-82.4331,59.0,82,75,0.51,CA,2024-06-07
509,al jawf,29.5,38.75,82.4,16,0,2.32,SA,2024-06-07
510,novoishimskiy,53.1981,66.7694,71.6,71,91,5.12,KZ,2024-06-07
511,bikenibeu village,1.3673,173.1241,89.6,70,75,2.57,KI,2024-06-07
512,maintirano,-18.0667,44.0167,75.2,61,48,1.72,MG,2024-06-07
513,abepura,-2.6333,140.5833,86.0,66,20,2.06,ID,2024-06-07
514,barbezieux-saint-hilaire,45.4726,-0.1522,57.2,97,96,3.56,FR,2024-06-07
515,monrovia,6.3005,-10.7969,77.0,87,85,2.65,LR,2024-06-07
516,kurmuk,10.55,34.2833,71.6,89,87,2.02,SD,2024-06-07
517,colachel,8.1667,77.25,82.4,82,100,2.58,IN,2024-06-07
518,geneina,13.45,22.45,80.6,17,66,1.35,SD,2024-06-07
519,island harbour,50.724,-1.2758,46.4,73,5,0.45,GB,2024-06-07
520,kargasok,59.0556,80.8572,57.2,62,94,3.58,RU,2024-06-07
521,baishishan,43.5833,127.5667,73.4,47,100,6.67,CN,2024-06-07
522,siwa oasis,29.2041,25.5195,84.2,23,0,1.14,EG,2024-06-07
523,selfoss,63.9331,-20.9971,39.2,71,40,7.78,IS,2024-06-07
524,sinabang,2.4803,96.3801,86.0,71,100,2.73,ID,2024-06-07
525,maridi,4.9158,29.4742,68.0,96,98,1.62,SS,2024-06-07
526,ebon,4.582,168.6964,84.2,72,45,3.61,MH,2024-06-07
527,el granada,37.5027,-122.4694,59.0,82,0,6.69,US,2024-06-07
528,ifrane,33.3333,-5.25,59.0,85,100,2.36,MA,2024-06-07
529,sur,22.5667,59.5289,91.4,53,0,2.46,OM,2024-06-07
530,ar rutbah,33.0381,40.2848,84.2,18,0,2.34,IQ,2024-06-07
531,trujillo,-8.116,-79.03,60.8,100,100,4.12,PE,2024-06-07
532,minas de marcona,-15.2119,-75.1103,55.4,84,30,2.79,PE,2024-06-07
533,togur,58.3631,82.8265,51.8,74,79,2.68,RU,2024-06-07
534,eagle pass,28.7091,-100.4995,91.4,53,27,3.31,US,2024-06-07
535,ta`u,-14.2336,-169.5144,78.8,72,100,8.0,AS,2024-06-07
536,fortuna,40.5982,-124.1573,59.0,77,0,4.12,US,2024-06-07
537,aroma,15.8167,36.1333,89.6,36,0,6.14,SD,2024-06-07
538,santa elena de uairen,4.6167,-61.1333,68.0,91,56,1.5,VE,2024-06-07
539,tobelo,1.7284,128.0095,78.8,88,100,2.55,ID,2024-06-07
540,sinazongwe,-17.2614,27.4618,64.4,50,0,2.58,ZM,2024-06-07
541,lipkovo,42.1564,21.5853,53.6,81,0,1.27,MK,2024-06-07
542,salinas,36.6777,-121.6555,59.0,81,75,6.17,US,2024-06-07
543,ramgarh,23.6333,85.5167,91.4,26,30,2.36,IN,2024-06-07
544,lively,46.4334,-81.1498,59.0,85,100,2.21,CA,2024-06-07
545,namie,37.4833,141.0,68.0,83,100,2.6,JP,2024-06-07
546,kristiansund,63.1115,7.732,46.4,81,75,2.06,NO,2024-06-07
547,vavuniya,8.7514,80.4971,82.4,72,100,3.97,LK,2024-06-07
548,giado,31.9582,12.0203,66.2,34,0,0.85,LY,2024-06-07
549,nantucket,41.2835,-70.0995,60.8,99,100,4.63,US,2024-06-07
550,east falmouth,41.5784,-70.5586,64.4,97,100,0.0,US,2024-06-07
551,raikot,30.65,75.6,91.4,24,0,2.31,IN,2024-06-07
552,punta del este,-34.9667,-54.95,51.8,99,100,1.54,UY,2024-06-07
553,danville,36.586,-79.395,71.6,92,20,1.54,US,2024-06-07
554,lorengau,-2.0226,147.2712,82.4,78,62,0.63,PG,2024-06-07
555,surajgarh,28.3124,75.7347,96.8,27,3,1.85,IN,2024-06-07
556,palmer,42.1584,-72.3287,68.0,80,75,2.06,US,2024-06-07
557,mangrol,21.1167,70.1167,86.0,67,0,4.73,IN,2024-06-07
558,mokhsogollokh,61.4681,128.9203,66.2,32,60,2.36,RU,2024-06-07
559,vizinga,61.0749,50.1031,55.4,73,6,3.25,RU,2024-06-07
560,qarazhal,48.0078,70.7903,73.4,53,61,5.11,KZ,2024-06-07
561,dalbandin,28.8947,64.4101,87.8,10,59,3.03,PK,2024-06-07
562,sumbe,-11.2061,13.8437,68.0,85,74,1.3,AO,2024-06-07
563,ruovesi,61.9858,24.0571,46.4,80,9,1.99,FI,2024-06-07
564,umea,63.8284,20.2597,39.2,93,37,1.03,SE,2024-06-07
565,kochi,9.9399,76.2602,80.6,83,93,3.92,IN,2024-06-07
566,qaisumah,28.3112,46.1273,86.0,15,0,2.57,SA,2024-06-07
567,calama,-22.4667,-68.9333,48.2,14,0,7.2,CL,2024-06-07
568,sirte,31.2089,16.5887,71.6,81,0,3.29,LY,2024-06-07
569,cidreira,-30.1811,-50.2056,64.4,95,22,1.8,BR,2024-06-07
570,dakhla,23.6848,-15.958,66.2,92,9,5.23,EH,2024-06-07
571,imbituba,-28.24,-48.6703,68.0,94,47,1.23,BR,2024-06-07
572,nyala,12.05,24.8833,84.2,42,59,5.62,SD,2024-06-07
573,matthew town,20.95,-73.6667,82.4,85,100,4.28,BS,2024-06-07
574,sevastopol,44.6,33.5333,62.6,56,0,3.24,UA,2024-06-07
575,xiva,41.3783,60.3639,80.6,14,4,1.94,UZ,2024-06-07
576,sambava,-14.2667,50.1667,69.8,87,89,4.59,MG,2024-06-07
577,lagos,6.5833,3.75,77.0,95,100,1.72,NG,2024-06-07
578,garbahaarrey,3.3289,42.2209,77.0,73,60,7.45,SO,2024-06-07
579,'ain deheb,34.8422,1.547,73.4,41,69,5.0,DZ,2024-06-07
580,klaksvik,62.2266,-6.589,41.0,77,94,4.41,FO,2024-06-07
581,osby,56.3816,13.9936,46.4,97,9,1.66,SE,2024-06-07
582,bani suwayf,29.0744,31.0979,82.4,39,0,3.53,EG,2024-06-07
583,prince george,53.9166,-122.753,60.8,35,75,5.66,CA,2024-06-07
584,celestun,20.8667,-90.4,82.4,83,29,6.75,MX,2024-06-07
585,tamiahua,21.2667,-97.45,80.6,93,0,1.63,MX,2024-06-07
586,kapoeta,4.7717,33.5903,77.0,68,55,1.75,SS,2024-06-07
587,anjozorobe,-18.4,47.8667,55.4,92,80,2.39,MG,2024-06-07
588,antsiranana,-12.2787,49.2917,73.4,72,92,6.79,MG,2024-06-07
589,kiknur,57.3034,47.2011,62.6,90,42,1.3,RU,2024-06-07
590,san nicolas,18.1725,120.5953,86.0,79,75,2.06,PH,2024-06-07
591,mugia,43.1041,-9.2179,59.0,86,100,11.07,ES,2024-06-07
592,macia,-25.0269,33.0989,64.4,42,0,2.24,MZ,2024-06-07
593,huarmey,-10.0681,-78.1522,64.4,86,53,3.03,PE,2024-06-07
594,kerikeri,-35.2268,173.9474,60.8,87,100,2.21,NZ,2024-06-07
