City_ID,City,Lat,Lng,Max Temp,Humidity,Cloudiness,Wind Speed,Country,Date
0,colchani,-20.3,-66.9333,50.0,33,96,4.92,BO,2024-06-08
1,qaqortoq,60.7167,-46.0333,39.2,98,100,1.09,GL,2024-06-08
2,adamstown,-25.066,-130.1015,73.4,82,11,4.97,PN,2024-06-08
3,happy valley-goose bay,53.3168,-60.3315,69.8,46,6,2.86,CA,2024-06-08
4,mogocha,53.7333,119.7667,42.8,60,6,1.31,RU,2024-06-08
5,swan hill,-35.3378,143.5544,46.4,94,96,2.8,AU,2024-06-08
6,sorong,-0.8833,131.25,77.0,91,100,3.53,ID,2024-06-08
7,atascadero,35.4894,-120.6707,68.0,67,100,3.58,US,2024-06-08
8,stanley,54.868,-1.6985,53.6,52,20,8.75,GB,2024-06-08
9,iqaluit,63.7506,-68.5145,37.4,64,40,7.6,CA,2024-06-08
10,port-aux-francais,-49.35,70.2167,42.8,96,100,14.44,TF,2024-06-08
11,ushuaia,-54.8,-68.3,28.4,97,9,0.58,AR,2024-06-08
12,vorgashor,67.5833,63.95,30.2,93,100,2.69,RU,2024-06-08
13,puerto ayora,-0.7393,-90.3518,77.0,91,100,1.79,EC,2024-06-08
14,kourou,5.1552,-52.6478,89.6,64,39,3.4,GF,2024-06-08
15,burang,30.25,81.1667,39.2,56,0,2.3,CN,2024-06-08
16,portland,45.5234,-122.6762,75.2,49,75,3.09,US,2024-06-08
17,axim,4.8699,-2.2405,78.8,86,33,3.82,GH,2024-06-08
18,port alfred,-33.5906,26.891,59.0,78,21,5.33,ZA,2024-06-08
19,utrik,11.2278,169.8474,82.4,81,19,7.66,MH,2024-06-08
20,dudinka,69.4058,86.1778,35.6,97,89,4.02,RU,2024-06-08
21,umea,63.8284,20.2597,55.4,71,0,3.09,SE,2024-06-08
22,yellowknife,62.456,-114.3525,51.8,57,100,5.36,CA,2024-06-08
23,shannon,52.7039,-8.8642,57.2,54,20,4.12,IE,2024-06-08
24,punta arenas,-53.15,-70.9167,39.2,65,0,2.06,CL,2024-06-08
25,coyhaique,-45.5752,-72.0662,44.6,98,100,1.69,CL,2024-06-08
26,coahuayana de hidalgo,18.7,-103.6583,91.4,47,70,3.97,MX,2024-06-08
27,huarmey,-10.0681,-78.1522,71.6,69,13,4.33,PE,2024-06-08
28,albany,42.6001,-73.9662,68.0,61,41,0.45,US,2024-06-08
29,saint-joseph,-21.3667,55.6167,69.8,85,69,1.8,RE,2024-06-08
30,lebu,-37.6167,-73.65,53.6,93,100,7.68,CL,2024-06-08
31,colonia,50.9333,6.95,64.4,60,0,6.69,DE,2024-06-08
32,embi,48.8264,58.1442,71.6,59,74,2.66,KZ,2024-06-08
33,blackmans bay,-43.0167,147.3167,46.4,92,3,0.45,AU,2024-06-08
34,papatowai,-46.5619,169.4708,46.4,85,100,3.18,NZ,2024-06-08
35,kununurra,-15.7667,128.7333,57.2,67,0,2.57,AU,2024-06-08
36,brak,27.5496,14.2714,87.8,9,0,3.81,LY,2024-06-08
37,luganville,-15.5333,167.1667,77.0,84,99,4.47,VU,2024-06-08
38,guozhen,34.3659,107.359,66.2,53,100,2.42,CN,2024-06-08
39,afaahiti,-17.75,-149.2833,75.2,85,97,7.0,PF,2024-06-08
40,suhbaatar,50.2314,106.2078,59.0,81,87,0.83,MN,2024-06-08
41,thompson,55.7435,-97.8558,39.2,93,100,4.12,CA,2024-06-08
42,borogontsy,62.6683,131.1683,48.2,66,5,2.39,RU,2024-06-08
43,midvagur,62.0511,-7.1939,44.6,81,75,8.75,FO,2024-06-08
44,port mathurin,-19.6833,63.4167,75.2,78,40,9.97,MU,2024-06-08
45,whitehorse,60.7161,-135.0538,64.4,30,100,2.68,CA,2024-06-08
46,port lincoln,-34.7333,135.8667,55.4,77,64,3.47,AU,2024-06-08
47,ribeira grande,38.5167,-28.7,69.8,83,40,6.69,PT,2024-06-08
48,bayramaly,37.6185,62.1671,87.8,17,0,3.72,TM,2024-06-08
49,bredasdorp,-34.5322,20.0403,50.0,86,0,1.06,ZA,2024-06-08
50,hermanus,-34.4187,19.2345,50.0,77,0,2.72,ZA,2024-06-08
51,mount gambier,-37.8333,140.7667,46.4,88,36,1.97,AU,2024-06-08
52,waitangi,-43.9535,-176.5597,48.2,83,5,3.13,NZ,2024-06-08
53,ulsteinvik,62.3432,5.8487,48.2,91,100,1.34,NO,2024-06-08
54,khovd,48.0056,91.6419,66.2,32,7,4.07,MN,2024-06-08
55,usinsk,65.9939,57.5281,37.4,85,3,4.92,RU,2024-06-08
56,olonkinbyen,70.9221,-8.7187,33.8,93,71,5.26,SJ,2024-06-08
57,bikenibeu village,1.3673,173.1241,77.0,100,40,0.0,KI,2024-06-08
58,antalaha,-14.9003,50.2788,69.8,85,4,3.04,MG,2024-06-08
59,chui,-33.6971,-53.4616,66.2,91,100,2.72,UY,2024-06-08
60,nadym,65.5333,72.5167,42.8,74,7,4.45,RU,2024-06-08
61,grytviken,-54.2811,-36.5092,28.4,86,100,3.45,GS,2024-06-08
62,tomatlan,19.9333,-105.25,91.4,43,2,5.03,MX,2024-06-08
63,amurzet,47.6967,131.0981,55.4,95,100,2.54,RU,2024-06-08
64,tiksi,71.6872,128.8694,32.0,90,57,3.93,RU,2024-06-08
65,sal rei,16.1833,-22.9167,77.0,73,75,8.75,CV,2024-06-08
66,wailua homesteads,22.0669,-159.378,78.8,81,75,4.63,US,2024-06-08
67,chernomorskoye,45.5039,32.6997,71.6,75,70,4.21,UA,2024-06-08
68,ilulissat,69.2167,-51.1,39.2,81,0,3.6,GL,2024-06-08
69,pierre,44.3683,-100.351,66.2,57,100,2.57,US,2024-06-08
70,thetford-mines,46.0937,-71.3054,57.2,96,99,3.21,CA,2024-06-08
71,atafu village,-8.5421,-172.5159,82.4,74,100,2.99,TK,2024-06-08
72,edinburgh of the seven seas,-37.0676,-12.3116,60.8,90,100,12.95,SH,2024-06-08
73,rongelap,11.1635,166.8941,82.4,82,18,7.37,MH,2024-06-08
74,anadyr,64.75,177.4833,33.8,100,75,4.0,RU,2024-06-08
75,puerto natales,-51.7236,-72.4875,35.6,94,93,1.85,CL,2024-06-08
76,bethel,41.3712,-73.414,75.2,55,0,6.69,US,2024-06-08
77,balykshi,47.0667,51.8667,75.2,46,0,4.0,KZ,2024-06-08
78,pallisa,1.145,33.7094,66.2,82,92,2.55,UG,2024-06-08
79,rabigh,22.7986,39.0349,87.8,60,0,3.8,SA,2024-06-08
80,aldan,58.6031,125.3894,48.2,75,100,1.27,RU,2024-06-08
81,skowhegan,44.7651,-69.7192,66.2,80,97,3.92,US,2024-06-08
82,xinqing,48.2333,129.5,50.0,96,63,0.54,CN,2024-06-08
83,naze,28.3667,129.4833,75.2,92,95,3.76,JP,2024-06-08
84,yangcun,39.3639,117.0603,71.6,56,71,2.91,CN,2024-06-08
85,north bend,43.4065,-124.2243,62.6,77,75,5.66,US,2024-06-08
86,ola,59.5833,151.2833,41.0,98,100,0.89,RU,2024-06-08
87,buturlinovka,50.8239,40.6092,66.2,68,95,1.9,RU,2024-06-08
88,iskateley,67.6803,53.1512,39.2,73,82,4.92,RU,2024-06-08
89,danilovka,50.3557,44.1168,64.4,85,2,3.14,RU,2024-06-08
90,bulayevo,54.9056,70.4439,53.6,90,100,3.17,KZ,2024-06-08
91,kyelang,32.5833,77.0333,30.2,91,100,2.68,IN,2024-06-08
92,udachny,66.4167,112.4,57.2,80,97,2.05,RU,2024-06-08
93,presidencia de la plaza,-27.0015,-59.8424,86.0,43,27,5.19,AR,2024-06-08
94,modimolle,-24.7,28.4,48.2,64,0,3.2,ZA,2024-06-08
95,ramhormoz,31.28,49.6035,96.8,13,0,2.92,IR,2024-06-08
96,enewetak,11.3474,162.3373,82.4,81,31,6.71,MH,2024-06-08
97,jwaneng,-24.6004,24.7303,51.8,47,0,4.02,BW,2024-06-08
98,gallup,35.5281,-108.7426,89.6,14,0,5.66,US,2024-06-08
99,fort st. john,56.2499,-120.8529,48.2,59,100,3.95,CA,2024-06-08
100,chinde,26.8418,88.0763,66.2,75,4,2.63,NP,2024-06-08
101,jamestown,42.097,-79.2353,69.8,43,40,8.23,US,2024-06-08
102,hamilton,39.1834,-84.5333,75.2,65,40,3.6,US,2024-06-08
103,benghazi,32.1167,20.0667,75.2,69,0,5.96,LY,2024-06-08
104,kamaishi,39.2667,141.8833,59.0,95,100,3.45,JP,2024-06-08
105,chonchi,-42.6128,-73.8092,55.4,94,100,4.55,CL,2024-06-08
106,tobruk,32.0836,23.9764,73.4,85,0,6.92,LY,2024-06-08
107,plesetsk,62.708,40.2916,51.8,93,8,0.75,RU,2024-06-08
108,kerikeri,-35.2268,173.9474,62.6,94,100,3.13,NZ,2024-06-08
109,margaret river,-33.95,115.0667,62.6,91,100,11.25,AU,2024-06-08
110,matoury,4.8483,-52.3317,89.6,66,42,5.66,GF,2024-06-08
111,vila velha,-20.3297,-40.2925,77.0,73,20,3.09,BR,2024-06-08
112,mahibadhoo,3.7833,72.9667,82.4,76,100,5.74,MV,2024-06-08
113,kenai,60.5544,-151.2583,55.4,65,100,6.69,US,2024-06-08
114,los osos,35.3111,-120.8324,66.2,46,100,2.24,US,2024-06-08
115,holualoa,19.6228,-155.9522,75.2,79,20,8.23,US,2024-06-08
116,avarua,-21.2078,-159.775,73.4,64,20,1.54,CK,2024-06-08
117,san martin,-33.081,-68.4681,68.0,43,11,2.03,AR,2024-06-08
118,isafjordur,66.0755,-23.124,37.4,83,91,4.06,IS,2024-06-08
119,badger,64.8,-147.5333,73.4,28,0,7.72,US,2024-06-08
120,invercargill,-46.4,168.35,44.6,88,100,1.34,NZ,2024-06-08
121,mosjoen,65.836,13.1908,60.8,41,40,1.54,NO,2024-06-08
122,manokwari,-0.8667,134.0833,78.8,82,93,1.2,ID,2024-06-08
123,waingapu,-9.6567,120.2641,75.2,86,41,3.63,ID,2024-06-08
124,deniliquin,-35.5333,144.9667,44.6,93,58,2.95,AU,2024-06-08
125,sinaloa de leyva,25.8333,-108.2333,96.8,38,0,2.82,MX,2024-06-08
126,thinadhoo,0.5333,72.9333,84.2,73,100,4.63,MV,2024-06-08
127,kulhudhuffushi,6.6221,73.07,82.4,79,100,6.93,MV,2024-06-08
128,pisco,-13.7,-76.2167,64.4,88,100,1.54,PE,2024-06-08
129,bilibino,68.0546,166.4372,42.8,48,0,1.5,RU,2024-06-08
130,le port,-20.9373,55.2919,73.4,82,34,1.27,RE,2024-06-08
131,berdigestyakh,62.0989,126.6992,50.0,68,0,0.78,RU,2024-06-08
132,longboat key,27.4125,-82.659,91.4,50,0,5.14,US,2024-06-08
133,remire-montjoly,4.9167,-52.2667,89.6,66,31,5.66,GF,2024-06-08
134,yanbu,24.0891,38.0637,91.4,31,0,0.0,SA,2024-06-08
135,monrovia,6.3005,-10.7969,80.6,86,30,4.28,LR,2024-06-08
136,west island,-12.1568,96.8225,80.6,83,100,6.17,CC,2024-06-08
137,greenland,43.0362,-70.8328,69.8,72,75,4.63,US,2024-06-08
138,college,64.8569,-147.8028,71.6,31,75,7.72,US,2024-06-08
139,constantia,44.1833,28.65,69.8,67,45,4.04,RO,2024-06-08
140,aldinga beach,-35.2793,138.4604,51.8,84,69,4.79,AU,2024-06-08
141,egilsstadir,65.2653,-14.3948,41.0,97,100,2.16,IS,2024-06-08
142,magadan,59.5667,150.8,41.0,99,100,0.99,RU,2024-06-08
143,stornoway,58.2093,-6.3865,46.4,90,75,3.6,GB,2024-06-08
144,castillos,-34.1667,-53.8333,68.0,86,100,2.73,UY,2024-06-08
145,port elizabeth,-33.918,25.5701,53.6,81,97,1.95,ZA,2024-06-08
146,mountain home,43.133,-115.6912,87.8,27,0,1.79,US,2024-06-08
147,ko pha ngan,9.7578,100.0291,78.8,74,100,9.46,TH,2024-06-08
148,ugoofaaru,5.6667,73.0,82.4,77,100,6.4,MV,2024-06-08
149,las cabezas de san juan,36.9838,-5.9393,69.8,63,42,4.67,ES,2024-06-08
150,tanumah,27.1,44.1333,96.8,7,1,4.4,SA,2024-06-08
151,komsomol'skiy,43.9783,46.6985,73.4,57,100,3.72,RU,2024-06-08
152,st. john's,47.5649,-52.7093,64.4,74,33,4.03,CA,2024-06-08
153,kaa-khem,51.6833,94.7333,66.2,62,18,1.93,RU,2024-06-08
154,greymouth,-42.4667,171.2,48.2,95,100,3.0,NZ,2024-06-08
155,'ain el melh,34.8415,4.1638,82.4,26,100,8.22,DZ,2024-06-08
156,kolonia town,6.964,158.206,84.2,79,100,4.97,FM,2024-06-08
157,charters towers,-20.1,146.2667,50.0,52,0,3.06,AU,2024-06-08
158,kerimaki,61.9167,29.2833,51.8,82,100,2.57,FI,2024-06-08
159,lerwick,60.1545,-1.1494,48.2,88,100,10.68,GB,2024-06-08
160,filey,54.21,-0.2892,57.2,55,5,1.79,GB,2024-06-08
161,vadso,70.0744,29.7487,37.4,93,100,6.69,NO,2024-06-08
162,popondetta,-8.7537,148.2534,73.4,96,17,1.23,PG,2024-06-08
163,kingston,17.997,-76.7936,87.8,70,100,4.73,JM,2024-06-08
164,san luis de la loma,17.2706,-100.8939,87.8,55,100,4.78,MX,2024-06-08
165,ambon,-3.6954,128.1814,78.8,15,100,5.03,ID,2024-06-08
166,pacasmayo,-7.4006,-79.5714,71.6,71,100,5.9,PE,2024-06-08
167,narrabri,-30.3167,149.7833,42.8,96,100,1.23,AU,2024-06-08
168,piti village,13.4626,144.6933,80.6,85,0,2.06,GU,2024-06-08
169,mombetsu,44.3525,143.3525,57.2,89,100,1.61,JP,2024-06-08
170,moranha,27.1833,94.9333,77.0,89,46,1.5,IN,2024-06-08
171,kem',64.9555,34.5793,48.2,72,100,2.19,RU,2024-06-08
172,kuytun,54.3419,101.5036,51.8,96,100,1.6,RU,2024-06-08
173,tura,25.5198,90.2201,75.2,95,0,2.69,IN,2024-06-08
174,howard springs,-12.497,131.047,60.8,70,5,3.36,AU,2024-06-08
175,palikir - national government center,6.9248,158.1611,82.4,78,100,4.85,FM,2024-06-08
176,merizo village,13.2658,144.6691,80.6,90,98,4.35,GU,2024-06-08
177,vakarai,55.6035,23.8213,57.2,87,82,2.58,LT,2024-06-08
178,ketchikan,55.3422,-131.6461,71.6,33,0,4.63,US,2024-06-08
179,al jawf,29.5,38.75,91.4,14,3,2.92,SA,2024-06-08
180,talnakh,69.4865,88.3972,35.6,98,100,4.37,RU,2024-06-08
181,cambria,35.5641,-121.0808,68.0,74,100,2.73,US,2024-06-08
182,shakhtersk,48.0625,38.5167,71.6,51,99,0.95,UA,2024-06-08
183,san antonio de pale,-1.4014,5.6325,77.0,79,7,3.48,GQ,2024-06-08
184,cidreira,-30.1811,-50.2056,66.2,83,47,3.91,BR,2024-06-08
185,puerto baquerizo moreno,-0.9,-89.6,78.8,69,75,7.2,EC,2024-06-08
186,mira,45.4358,12.1348,75.2,65,0,2.57,IT,2024-06-08
187,mitu,1.1983,-70.1733,73.4,99,100,0.15,CO,2024-06-08
188,cabedelo,-6.9811,-34.8339,82.4,81,87,6.22,BR,2024-06-08
189,ca mau,9.1769,105.15,82.4,79,100,1.64,VN,2024-06-08
190,kilindoni,-7.9139,39.6668,82.4,71,3,8.75,TZ,2024-06-08
191,klyuchi,52.2667,79.1667,64.4,79,6,2.15,RU,2024-06-08
192,am timan,11.0297,20.2827,93.2,31,24,1.76,TD,2024-06-08
193,ziniare,12.5822,-1.2983,96.8,28,9,2.36,BF,2024-06-08
194,alice springs,-23.7,133.8833,39.2,93,0,2.06,AU,2024-06-08
195,upington,-28.4478,21.2561,51.8,37,0,2.41,ZA,2024-06-08
196,san patricio,28.017,-97.5169,91.4,40,5,7.06,US,2024-06-08
197,pundong,-7.9522,110.3486,75.2,95,81,1.84,ID,2024-06-08
198,port augusta,-32.5,137.7667,48.2,69,50,1.38,AU,2024-06-08
199,ust'-ilimsk,58.0006,102.6619,55.4,54,100,2.68,RU,2024-06-08
200,mejit,10.2753,170.8646,82.4,81,69,7.72,MH,2024-06-08
201,dolinsk,47.35,142.8,60.8,71,100,3.45,RU,2024-06-08
202,hawaiian paradise park,19.5933,-154.9731,78.8,77,40,3.09,US,2024-06-08
203,sao jose da coroa grande,-8.8978,-35.1478,80.6,79,64,3.78,BR,2024-06-08
204,sambava,-14.2667,50.1667,71.6,84,4,4.61,MG,2024-06-08
205,mount pearl,47.5166,-52.7813,64.4,74,8,3.13,CA,2024-06-08
206,morehead city,34.7229,-76.726,84.2,54,0,4.12,US,2024-06-08
207,kailua-kona,19.6406,-155.9956,78.8,83,20,8.23,US,2024-06-08
208,acarau,-2.8856,-40.12,82.4,81,4,4.91,BR,2024-06-08
209,vila do maio,15.1333,-23.2167,77.0,85,36,6.71,CV,2024-06-08
210,manta,-0.95,-80.7333,78.8,73,100,5.66,EC,2024-06-08
211,eldama ravine,0.0516,35.7308,57.2,92,100,1.71,KE,2024-06-08
212,mossel bay,-34.1831,22.146,51.8,72,100,1.79,ZA,2024-06-08
213,mocimboa,-11.3167,40.35,75.2,83,0,4.19,MZ,2024-06-08
214,talas,38.6908,35.5538,57.2,88,40,7.2,TR,2024-06-08
215,mthatha,-31.5889,28.7844,46.4,92,4,1.52,ZA,2024-06-08
216,keflavik,64.0049,-22.5624,46.4,66,0,5.14,IS,2024-06-08
217,mermoz boabab,14.7065,-17.4758,78.8,83,0,6.33,SN,2024-06-08
218,aguas vermelhas,-15.7472,-41.46,78.8,42,11,3.31,BR,2024-06-08
219,port-cartier,50.0334,-66.8654,64.4,64,31,4.55,CA,2024-06-08
220,roma,43.2128,-75.4557,68.0,64,40,6.69,US,2024-06-08
221,ajdabiya,30.7554,20.2263,73.4,71,0,7.01,LY,2024-06-08
222,guatire,10.4762,-66.5427,89.6,75,87,0.51,VE,2024-06-08
223,munsan,37.8594,126.785,68.0,91,46,0.97,KR,2024-06-08
224,guangyuan,32.442,105.823,62.6,81,99,2.13,CN,2024-06-08
225,casper,42.8666,-106.3131,75.2,40,0,2.06,US,2024-06-08
226,saldanha,-33.0117,17.9442,57.2,76,96,5.08,ZA,2024-06-08
227,milford,41.2223,-73.0565,75.2,50,20,6.17,US,2024-06-08
228,billings,45.7833,-108.5007,75.2,40,20,2.68,US,2024-06-08
229,rio grande,-32.035,-52.0986,69.8,87,100,4.38,BR,2024-06-08
230,minas de marcona,-15.2119,-75.1103,66.2,56,50,4.18,PE,2024-06-08
231,gadzhiyevo,69.2551,33.3362,39.2,86,100,7.18,RU,2024-06-08
232,kodiak,57.79,-152.4072,46.4,87,100,11.83,US,2024-06-08
233,tanjung pandan,-2.75,107.65,78.8,89,78,2.05,ID,2024-06-08
234,aalen,48.8378,10.0933,64.4,96,100,2.74,DE,2024-06-08
235,codrington,-38.2667,141.9667,53.6,69,100,4.6,AU,2024-06-08
236,coquimbo,-29.9533,-71.3436,57.2,74,75,5.66,CL,2024-06-08
237,ilhabela,-23.7781,-45.3581,75.2,72,11,1.67,BR,2024-06-08
238,crane,31.3974,-102.3501,98.6,24,100,8.88,US,2024-06-08
239,arno,60.1167,18.6333,53.6,66,100,5.44,SE,2024-06-08
240,okhotsk,59.3833,143.3,41.0,85,100,2.15,RU,2024-06-08
241,kone,-21.0595,164.8658,69.8,92,92,1.96,NC,2024-06-08
242,petropavlovsk-kamchatsky,53.0452,158.6483,50.0,63,75,6.26,RU,2024-06-08
243,toliara,-23.35,43.6667,69.8,73,1,8.14,MG,2024-06-08
244,haapsalu,58.9431,23.5414,55.4,79,74,2.93,EE,2024-06-08
245,esmeraldas,-19.7625,-44.3139,77.0,36,0,2.19,BR,2024-06-08
246,latehar,23.75,84.5,87.8,41,13,1.94,IN,2024-06-08
247,skagen,57.7209,10.5839,53.6,70,100,10.55,DK,2024-06-08
248,smithers,54.7804,-127.1743,69.8,29,99,2.92,CA,2024-06-08
249,tofol,5.3248,163.0078,84.2,79,97,5.61,FM,2024-06-08
250,aktau,43.65,51.2,71.6,70,98,3.12,KZ,2024-06-08
251,pamandzi,-12.7967,45.2794,78.8,78,0,5.66,YT,2024-06-08
252,kayangel,8.0823,134.7173,84.2,73,100,4.77,PW,2024-06-08
253,kili,5.6439,169.1211,84.2,78,29,7.07,MH,2024-06-08
254,bridgeton,39.4273,-75.2341,82.4,30,0,5.14,US,2024-06-08
255,valle nacional,17.7833,-96.3167,100.4,30,100,2.65,MX,2024-06-08
256,nuuk,64.1835,-51.7216,41.0,87,100,16.98,GL,2024-06-08
257,puerto leguizamo,-0.1934,-74.7819,73.4,99,100,1.16,CO,2024-06-08
258,den burg,53.0542,4.7972,55.4,74,20,4.63,NL,2024-06-08
259,belalcazar,2.6547,-75.9928,64.4,80,100,1.86,CO,2024-06-08
260,maturin,9.75,-63.1767,86.0,73,100,4.27,VE,2024-06-08
261,la ronge,55.1001,-105.2842,50.0,57,100,4.63,CA,2024-06-08
262,tual,-5.6667,132.75,78.8,83,44,9.17,ID,2024-06-08
263,wanganui,-39.9333,175.05,51.8,77,97,2.37,NZ,2024-06-08
264,sonqor,34.7837,47.6004,71.6,34,87,1.21,IR,2024-06-08
265,phalaborwa,-23.943,31.1411,59.0,56,20,3.42,ZA,2024-06-08
266,acapulco de juarez,16.8634,-99.8901,86.0,74,75,5.14,MX,2024-06-08
267,sao joao da barra,-21.6403,-41.0511,78.8,75,0,4.02,BR,2024-06-08
268,alpena,45.0617,-83.4327,60.8,93,100,2.57,US,2024-06-08
269,new norfolk,-42.7826,147.0587,46.4,92,90,0.95,AU,2024-06-08
270,murzuq,25.9155,13.9184,87.8,12,0,3.78,LY,2024-06-08
271,taoudenni,22.6783,-3.9836,107.6,9,9,1.77,ML,2024-06-08
272,rawson,-43.3002,-65.1023,57.2,56,100,2.87,AR,2024-06-08
273,myeik,12.4333,98.6,80.6,84,100,5.82,MM,2024-06-08
274,saint-philippe,-21.3585,55.7679,69.8,86,88,3.12,RE,2024-06-08
275,san fernando de apure,7.8878,-67.4724,82.4,82,100,0.89,VE,2024-06-08
276,geraldton,-28.7667,114.6,71.6,88,40,8.75,AU,2024-06-08
277,flying fish cove,-10.4217,105.6791,77.0,94,100,3.6,CX,2024-06-08
278,araguaina,-7.1911,-48.2072,95.0,32,65,3.12,BR,2024-06-08
279,belomorsk,64.5232,34.7668,51.8,68,99,1.96,RU,2024-06-08
280,carnarvon,-24.8667,113.6333,73.4,73,41,7.8,AU,2024-06-08
281,caleta de carquin,-11.0925,-77.6267,69.8,71,7,4.74,PE,2024-06-08
282,chengde,40.9725,117.9361,62.6,53,89,1.8,CN,2024-06-08
283,baihe,22.15,107.2333,77.0,95,100,0.74,CN,2024-06-08
284,vila franca do campo,37.7167,-25.4333,64.4,99,81,2.9,PT,2024-06-08
285,ulcinj,41.9294,19.2244,73.4,75,45,1.79,ME,2024-06-08
286,viedma,-40.8135,-62.9967,64.4,67,100,2.7,AR,2024-06-08
287,harstad,68.799,16.5293,48.2,95,100,1.34,NO,2024-06-08
288,jaciara,-15.9653,-54.9683,93.2,23,5,3.28,BR,2024-06-08
289,weno,7.4515,151.8468,82.4,78,75,3.09,FM,2024-06-08
290,knysna,-34.0363,23.0471,55.4,74,100,1.52,ZA,2024-06-08
291,mili,6.0815,171.735,82.4,77,98,5.33,MH,2024-06-08
292,sretensk,52.2453,117.7093,46.4,88,100,0.31,RU,2024-06-08
293,kalmunai,7.4167,81.8167,80.6,79,100,6.14,LK,2024-06-08
294,hanzhong,33.0728,107.0303,60.8,88,24,0.69,CN,2024-06-08
295,dunedin,-45.8742,170.5036,44.6,98,100,2.24,NZ,2024-06-08
296,deqen,29.9618,90.7188,51.8,63,5,1.92,CN,2024-06-08
297,sao tome,0.3365,6.7273,77.0,81,11,4.17,ST,2024-06-08
298,darnah,32.767,22.6367,75.2,68,0,7.95,LY,2024-06-08
299,kupang,-10.1667,123.5833,77.0,94,0,2.06,ID,2024-06-08
300,longyearbyen,78.2186,15.6401,39.2,70,75,1.54,SJ,2024-06-08
301,samalut,28.3121,30.7101,91.4,25,0,4.85,EG,2024-06-08
302,oranjemund,-28.55,16.4333,64.4,44,4,3.26,NA,2024-06-08
303,spas-demensk,54.4122,34.0226,51.8,98,9,2.61,RU,2024-06-08
304,springs,-26.25,28.4,44.6,61,0,3.6,ZA,2024-06-08
305,matanao,6.6792,125.255,75.2,92,100,1.94,PH,2024-06-08
306,cabugao,17.7931,120.4578,80.6,85,100,2.08,PH,2024-06-08
307,ust-nera,64.5667,143.2,41.0,51,88,1.84,RU,2024-06-08
308,xilin hot,43.9667,116.0333,55.4,38,4,0.7,CN,2024-06-08
309,khilok,51.3674,110.4676,57.2,68,100,1.59,RU,2024-06-08
310,lancaster,40.2504,-76.2499,77.0,47,20,6.17,US,2024-06-08
311,santa elena de uairen,4.6167,-61.1333,77.0,68,88,3.4,VE,2024-06-08
312,tolanaro,-25.0319,46.9987,68.0,88,75,7.2,MG,2024-06-08
313,fort bragg,35.139,-79.006,87.8,31,0,2.57,US,2024-06-08
314,fortuna,40.5982,-124.1573,60.8,85,75,7.2,US,2024-06-08
315,betioky,-23.7167,44.3833,64.4,77,0,5.07,MG,2024-06-08
316,elko,41.0002,-115.5012,82.4,33,92,3.58,US,2024-06-08
317,tazacorte,28.629,-17.9293,73.4,78,75,4.12,ES,2024-06-08
318,sao luis,-2.5297,-44.3028,87.8,62,40,2.57,BR,2024-06-08
319,umarkot,25.3616,69.7362,89.6,51,0,8.13,PK,2024-06-08
320,tazovsky,67.4667,78.7,37.4,82,94,3.53,RU,2024-06-08
321,gohand,25.7,79.55,100.4,17,0,1.62,IN,2024-06-08
322,mirnyy,62.5353,113.9611,44.6,96,36,2.24,RU,2024-06-08
323,arkhangel'sk,64.5401,40.5433,53.6,100,100,0.0,RU,2024-06-08
324,aasiaat,68.7098,-52.8699,35.6,83,12,3.71,GL,2024-06-08
325,yichang,30.7144,111.2847,73.4,79,100,0.7,CN,2024-06-08
326,port arthur,38.8,121.2667,66.2,84,97,3.26,CN,2024-06-08
327,bardai,11.65,7.2333,84.2,54,100,2.91,NG,2024-06-08
328,nar'yan-mar,67.6713,53.087,39.2,73,75,4.92,RU,2024-06-08
329,taro,-8.3862,115.28,71.6,100,98,0.14,ID,2024-06-08
330,benjamin constant,-4.3831,-70.0311,78.8,89,75,2.57,BR,2024-06-08
331,cheremushki,52.8356,91.3944,60.8,93,84,2.3,RU,2024-06-08
332,bani suwayf,29.0744,31.0979,91.4,27,0,4.99,EG,2024-06-08
333,howrah,22.5892,88.3103,87.8,84,40,5.14,IN,2024-06-08
334,nova sintra,14.8667,-24.7167,75.2,83,0,11.04,CV,2024-06-08
335,loei,17.4167,101.5,71.6,89,100,1.91,TH,2024-06-08
336,franceville,-1.6333,13.5836,75.2,87,96,1.67,GA,2024-06-08
337,kolonia,50.9333,6.95,64.4,60,0,6.69,DE,2024-06-08
338,carutapera,-1.195,-46.02,80.6,84,49,3.95,BR,2024-06-08
339,sabang,5.8933,95.3214,86.0,69,100,7.36,ID,2024-06-08
340,dryden,49.7833,-92.7503,66.2,42,75,6.17,CA,2024-06-08
341,beau vallon,-20.4189,57.6953,73.4,83,40,4.63,MU,2024-06-08
342,broken hill,-31.95,141.4333,46.4,84,0,1.31,AU,2024-06-08
343,lihue,21.9789,-159.3672,78.8,76,75,4.63,US,2024-06-08
344,atherton,53.5237,-2.4935,55.4,66,5,3.13,GB,2024-06-08
345,chernyshevskiy,63.0128,112.4714,41.0,95,3,1.7,RU,2024-06-08
346,marsh harbour,26.5412,-77.0636,84.2,70,5,2.68,BS,2024-06-08
347,okha,53.5739,142.9478,41.0,90,100,0.89,RU,2024-06-08
348,oamaru,-45.0784,170.9801,42.8,77,100,1.56,NZ,2024-06-08
349,markovo,57.3206,107.0881,44.6,80,20,1.79,RU,2024-06-08
350,marathon,44.9,-89.7668,66.2,62,75,4.63,US,2024-06-08
351,poronaysk,49.2167,143.1167,46.4,95,98,1.63,RU,2024-06-08
352,catia la mar,10.6038,-67.0303,93.2,64,40,2.57,VE,2024-06-08
353,georgetown,5.4112,100.3354,82.4,78,40,1.54,MY,2024-06-08
354,guerrero negro,27.9769,-114.0611,69.8,61,8,6.36,MX,2024-06-08
355,nemuro,43.3236,145.575,50.0,96,100,5.05,JP,2024-06-08
356,kavaratti,10.5669,72.642,80.6,87,100,5.8,IN,2024-06-08
357,freetown,8.484,-13.2299,82.4,61,75,2.57,SL,2024-06-08
358,mokrous,51.2333,47.5167,64.4,82,11,3.32,RU,2024-06-08
359,xining,36.6167,101.7667,51.8,76,100,0.74,CN,2024-06-08
360,pitimbu,-7.4706,-34.8086,82.4,78,23,4.89,BR,2024-06-08
361,igarka,67.4667,86.5833,41.0,92,100,4.02,RU,2024-06-08
362,khandyga,62.6667,135.6,48.2,44,0,3.7,RU,2024-06-08
363,selfoss,63.9331,-20.9971,51.8,50,100,4.78,IS,2024-06-08
364,alzamay,55.5562,98.6644,55.4,98,100,1.4,RU,2024-06-08
365,cabo san lucas,22.8909,-109.9124,86.0,45,0,5.66,MX,2024-06-08
366,san pedro,14.35,121.0167,80.6,93,40,1.03,PH,2024-06-08
367,antsiranana,-12.2787,49.2917,71.6,85,0,3.48,MG,2024-06-08
368,horta,38.5333,-28.6333,68.0,88,40,5.14,PT,2024-06-08
369,alto araguaia,-17.3147,-53.2153,87.8,26,10,2.96,BR,2024-06-08
370,saudarkrokur,65.7461,-19.6394,37.4,96,71,3.3,IS,2024-06-08
371,kirakira,-10.4544,161.9205,80.6,89,100,4.71,SB,2024-06-08
372,bereznik,62.8551,42.7072,51.8,94,54,2.34,RU,2024-06-08
373,novodvinsk,64.4165,40.8122,53.6,95,100,1.97,RU,2024-06-08
374,sincik,38.0368,38.6149,69.8,37,0,3.61,TR,2024-06-08
375,la gi,10.6667,107.7833,80.6,88,100,4.81,VN,2024-06-08
376,astrakhan,46.3497,48.0408,78.8,47,0,8.05,RU,2024-06-08
377,arar,30.9753,41.0381,95.0,8,0,3.6,SA,2024-06-08
378,newport beach,33.6189,-117.9289,68.0,81,100,2.57,US,2024-06-08
379,haiku-pauwela,20.9219,-156.3051,80.6,68,20,8.23,US,2024-06-08
380,prince rupert,54.3161,-130.3201,64.4,54,100,1.83,CA,2024-06-08
381,walvis bay,-22.9575,14.5053,64.4,35,19,5.49,NA,2024-06-08
382,antofagasta,-23.65,-70.4,69.8,77,31,2.94,CL,2024-06-08
383,shingu,33.7333,135.9833,66.2,90,100,1.0,JP,2024-06-08
384,maun,-19.9833,23.4167,66.2,39,0,5.14,BW,2024-06-08
385,paramirim,-13.4425,-42.2389,86.0,34,0,4.39,BR,2024-06-08
386,zavodskoy,43.4597,132.2922,57.2,100,75,1.0,RU,2024-06-08
387,piacabucu,-10.4056,-36.4344,78.8,86,2,3.47,BR,2024-06-08
388,maile,-38.9466,-72.3727,55.4,88,100,6.35,CL,2024-06-08
389,lata,40.1629,-8.3327,68.0,47,65,2.53,PT,2024-06-08
390,namibe,-15.1961,12.1522,68.0,76,0,0.72,AO,2024-06-08
391,skelleftea,64.7507,20.9528,59.0,68,7,3.09,SE,2024-06-08
392,sinabang,2.4803,96.3801,78.8,84,92,2.09,ID,2024-06-08
393,siwa oasis,29.2041,25.5195,89.6,21,0,3.42,EG,2024-06-08
394,yanam,16.7333,82.2167,82.4,87,87,0.98,IN,2024-06-08
395,kavieng,-2.5744,150.7967,82.4,79,10,3.85,PG,2024-06-08
396,lubango,-14.9172,13.4925,60.8,44,0,1.36,AO,2024-06-08
397,akureyri,65.6835,-18.0878,41.0,75,75,4.63,IS,2024-06-08
398,susuman,62.7833,148.1667,33.8,77,100,3.58,RU,2024-06-08
399,pangai,-19.8,-174.35,75.2,66,91,9.92,TO,2024-06-08
400,porto novo,6.4965,2.6036,80.6,82,99,3.03,BJ,2024-06-08
401,vernon,50.2581,-119.2691,77.0,23,14,1.54,CA,2024-06-08
402,sitka,57.0531,-135.33,69.8,28,40,5.66,US,2024-06-08
403,east london,-33.0153,27.9116,59.0,74,6,5.1,ZA,2024-06-08
404,patacamaya,-17.2333,-67.9167,59.0,10,100,4.47,BO,2024-06-08
405,carahue,-38.7,-73.1667,55.4,89,100,2.46,CL,2024-06-08
406,pyay,18.8167,95.2167,78.8,82,98,2.17,MM,2024-06-08
407,xinyuan,37.3,99.0,42.8,84,100,1.63,CN,2024-06-08
408,lompoc,34.6391,-120.4579,59.0,88,100,4.12,US,2024-06-08
409,sisimiut,66.9395,-53.6735,42.8,71,14,1.46,GL,2024-06-08
410,verkhnevilyuysk,63.4453,120.3167,51.8,86,6,2.31,RU,2024-06-08
411,barentu,15.1139,37.5928,96.8,13,100,2.48,ER,2024-06-08
412,konarka,19.9,86.1167,84.2,84,53,7.28,IN,2024-06-08
413,tralee,52.2704,-9.7026,53.6,69,8,3.39,IE,2024-06-08
414,linhares,-19.3911,-40.0722,77.0,64,79,3.13,BR,2024-06-08
415,shankargarh,25.1833,81.6167,98.6,19,0,2.6,IN,2024-06-08
416,saint-pierre,-21.3393,55.4781,69.8,78,0,2.57,RE,2024-06-08
417,north ward,-19.2454,146.8075,51.8,87,0,0.0,AU,2024-06-08
418,xiva,41.3783,60.3639,80.6,11,96,4.22,UZ,2024-06-08
419,hithadhoo,-0.6,73.0833,84.2,75,100,4.33,MV,2024-06-08
420,varto,39.1732,41.4559,55.4,86,99,1.7,TR,2024-06-08
421,makarov,48.6333,142.8,51.8,88,98,2.26,RU,2024-06-08
422,yuzhno-kurilsk,44.0306,145.8556,51.8,98,100,3.8,RU,2024-06-08
423,morgan city,29.6994,-91.2068,91.4,55,40,1.54,US,2024-06-08
424,nikolayevsk-on-amure,53.1406,140.73,41.0,97,80,1.34,RU,2024-06-08
425,tannum sands,-23.9504,151.3693,50.0,81,0,3.09,AU,2024-06-08
426,cicero dantas,-10.6,-38.3833,77.0,76,52,4.35,BR,2024-06-08
427,pangkalanbuun,-2.6833,111.6167,73.4,97,98,0.85,ID,2024-06-08
428,broome,42.2506,-75.833,69.8,63,75,6.69,US,2024-06-08
429,planaltina,-15.4528,-47.6142,80.6,34,0,3.26,BR,2024-06-08
430,neryungri,56.6709,124.6491,44.6,93,87,0.33,RU,2024-06-08
431,sarina,-21.4333,149.2167,48.2,1,0,2.43,AU,2024-06-08
432,tinajo,29.0788,-13.7081,71.6,78,20,1.54,ES,2024-06-08
433,linxia chengguanzhen,35.6003,103.2064,53.6,74,100,0.61,CN,2024-06-08
434,tagta,41.6504,59.9164,82.4,34,0,1.03,TM,2024-06-08
435,buka,40.8108,69.1986,78.8,31,0,2.28,UZ,2024-06-08
436,polyarnyy,69.1989,33.4478,41.0,85,100,6.91,RU,2024-06-08
437,bor,56.3567,44.0669,62.6,79,0,2.59,RU,2024-06-08
438,chinchilla,-26.75,150.6333,48.2,82,7,4.53,AU,2024-06-08
439,kiunga,-6.1219,141.2906,73.4,100,99,0.88,PG,2024-06-08
440,great falls,47.5002,-111.3008,69.8,42,0,3.09,US,2024-06-08
441,ta`u,-14.2336,-169.5144,80.6,74,100,10.89,AS,2024-06-08
442,pasuquin,18.3328,120.6177,80.6,94,75,2.06,PH,2024-06-08
443,maba,24.6841,113.5984,75.2,98,100,0.46,CN,2024-06-08
444,isangel,-19.55,169.2667,73.4,88,34,2.85,VU,2024-06-08
445,belyy yar,53.6039,91.3903,62.6,88,0,4.0,RU,2024-06-08
446,fada,9.5667,8.3,71.6,83,100,0.61,NG,2024-06-08
447,paracuru,-3.41,-39.0306,84.2,87,35,4.1,BR,2024-06-08
448,smiths station,32.5401,-85.0985,87.8,31,0,2.57,US,2024-06-08
449,saipan,15.1355,145.701,78.8,89,20,3.6,MP,2024-06-08
450,nagqu,31.5,92.0,42.8,76,61,2.59,CN,2024-06-08
451,ridder,50.355,83.5133,55.4,97,40,1.85,KZ,2024-06-08
452,itoman,26.1247,127.6694,77.0,100,75,5.14,JP,2024-06-08
453,cariati,39.4922,16.9594,77.0,54,0,1.56,IT,2024-06-08
454,beberibe,-4.1797,-38.1306,80.6,87,33,3.15,BR,2024-06-08
455,lorengau,-2.0226,147.2712,80.6,83,14,1.71,PG,2024-06-08
456,maceio,-9.6658,-35.7353,78.8,94,75,2.57,BR,2024-06-08
457,debre birhan,9.6833,39.5333,60.8,39,50,2.69,ET,2024-06-08
458,ancud,-41.8697,-73.8203,53.6,92,100,6.74,CL,2024-06-08
459,storvreta,59.9667,17.7,57.2,67,75,5.66,SE,2024-06-08
460,tremonton,41.7119,-112.1655,82.4,39,0,3.58,US,2024-06-08
461,tyukhtet,56.5389,89.3011,57.2,98,43,3.44,RU,2024-06-08
462,betio village,1.358,172.9211,77.0,76,78,4.9,KI,2024-06-08
463,buckeburg,52.2607,9.0494,62.6,55,75,5.14,DE,2024-06-08
464,galesong,-5.3166,119.3661,75.2,84,59,1.05,ID,2024-06-08
465,taroa,8.7058,171.2275,82.4,77,100,7.47,MH,2024-06-08
466,bela,25.9333,81.9833,96.8,18,0,3.4,IN,2024-06-08
467,concepcion,-36.827,-73.0498,55.4,100,100,11.32,CL,2024-06-08
468,elmali,36.7358,29.9177,64.4,74,100,1.74,TR,2024-06-08
469,calabugao,8.4564,125.1589,66.2,98,100,0.28,PH,2024-06-08
470,jabor,5.921,169.6434,84.2,78,44,7.03,MH,2024-06-08
471,thames,-37.1333,175.5333,57.2,86,93,1.56,NZ,2024-06-08
472,kudat,6.8837,116.8477,77.0,94,100,1.03,MY,2024-06-08
473,labrador city,52.9463,-66.9114,80.6,29,75,1.54,CA,2024-06-08
474,bintulu,3.1667,113.0333,77.0,100,20,1.54,MY,2024-06-08
475,bodo,67.28,14.405,59.0,62,20,1.54,NO,2024-06-08
476,cancale,48.676,-1.8523,59.0,77,0,4.63,FR,2024-06-08
477,kovdor,67.5662,30.4758,55.4,66,0,0.72,RU,2024-06-08
478,newman,37.3138,-121.0208,80.6,23,100,0.17,US,2024-06-08
479,bomadi,5.1593,5.9252,77.0,94,100,2.84,NG,2024-06-08
480,kuta,-8.7233,115.1723,78.8,100,40,3.09,ID,2024-06-08
481,conde,-7.2597,-34.9075,82.4,78,40,6.17,BR,2024-06-08
482,middle island,40.8843,-72.9373,77.0,47,20,7.2,US,2024-06-08
483,kapuskasing,49.4169,-82.4331,66.2,52,75,7.2,CA,2024-06-08
484,pontes e lacerda,-15.2261,-59.3353,95.0,22,5,3.42,BR,2024-06-08
485,valera,9.3178,-70.6036,89.6,60,100,1.06,VE,2024-06-08
486,machico,32.7,-16.7667,71.6,80,40,1.54,PT,2024-06-08
487,turpan,42.9333,89.1667,89.6,16,100,0.89,CN,2024-06-08
488,valparaiso,-33.0393,-71.6273,60.8,71,75,9.77,CL,2024-06-08
489,buncrana,55.1333,-7.45,50.0,78,100,7.5,IE,2024-06-08
490,fuglafjordur,62.244,-6.814,44.6,75,99,8.07,FO,2024-06-08
491,mukdahan,16.5833,104.5,77.0,94,100,0.65,TH,2024-06-08
492,pindushi,62.9152,34.58,55.4,67,98,1.85,RU,2024-06-08
493,bumba,2.1833,22.4667,75.2,86,100,1.57,CD,2024-06-08
494,kapchorwa,1.3965,34.4509,59.0,85,89,1.46,UG,2024-06-08
495,forster,-32.1667,152.5167,46.4,95,0,4.47,AU,2024-06-08
496,tucumcari,35.1717,-103.725,98.6,12,100,5.03,US,2024-06-08
497,kapa'a,22.0752,-159.319,78.8,81,75,4.63,US,2024-06-08
498,inhambane,-23.865,35.3833,71.6,52,100,7.41,MZ,2024-06-08
499,tabuk,17.4189,121.4443,77.0,92,100,1.43,PH,2024-06-08
500,richards bay,-28.783,32.0377,64.4,51,86,1.62,ZA,2024-06-08
501,cape saint claire,39.0432,-76.445,82.4,41,0,3.6,US,2024-06-08
502,san luis,-33.295,-66.3356,73.4,50,100,7.36,AR,2024-06-08
503,belo sur tsiribihina,-19.7,44.55,73.4,81,0,3.7,MG,2024-06-08
504,kushiro,42.975,144.3747,57.2,100,100,0.51,JP,2024-06-08
505,gutierrez zamora,20.45,-97.0833,100.4,54,100,6.61,MX,2024-06-08
506,lubang,13.8584,120.124,84.2,74,100,4.16,PH,2024-06-08
507,tsiombe,-25.3,45.4833,68.0,64,100,5.56,MG,2024-06-08
508,heroica ciudad de tlaxiaco,17.2667,-97.6833,82.4,26,100,2.47,MX,2024-06-08
509,cannonvale,-20.2833,148.7,64.4,76,0,2.88,AU,2024-06-08
510,tabou,4.423,-7.3528,78.8,84,57,3.59,CI,2024-06-08
511,santa maria da boa vista,-8.8078,-39.8256,84.2,49,94,6.82,BR,2024-06-08
512,luderitz,-26.6481,15.1594,66.2,37,0,3.27,NA,2024-06-08
513,zhatay,62.1594,129.8294,48.2,66,0,1.0,RU,2024-06-08
514,greenville,35.6127,-77.3663,86.0,31,0,0.0,US,2024-06-08
515,altinyayla,39.2725,36.751,60.8,80,100,1.52,TR,2024-06-08
516,bantay,17.5847,120.3892,80.6,82,100,2.47,PH,2024-06-08
517,kragero,58.8693,9.4149,51.8,72,32,6.28,NO,2024-06-08
518,ongjin,37.9347,125.3619,60.8,91,100,1.38,KP,2024-06-08
519,awjilah,29.1081,21.2869,84.2,38,0,8.61,LY,2024-06-08
520,kargasok,59.0556,80.8572,50.0,95,79,5.81,RU,2024-06-08
521,formosa,-26.1775,-58.1781,87.8,50,25,1.79,AR,2024-06-08
522,maryborough,-25.5333,152.7,55.4,83,0,2.02,AU,2024-06-08
523,severo-yeniseyskiy,60.3725,93.0408,51.8,70,100,4.02,RU,2024-06-08
524,ekibastuz,51.6667,75.3667,66.2,76,95,2.03,KZ,2024-06-08
525,tindouf,27.6711,-8.1474,91.4,14,0,8.75,DZ,2024-06-08
526,nolinsk,57.5596,49.9363,59.0,87,66,0.62,RU,2024-06-08
527,callao,-12.0667,-77.15,64.4,77,75,5.14,PE,2024-06-08
528,noumea,-22.2763,166.4572,75.2,99,100,2.16,NC,2024-06-08
529,barcelos,41.5388,-8.6151,64.4,89,90,1.79,PT,2024-06-08
530,laascaanood,8.4774,47.3597,80.6,53,13,11.65,SO,2024-06-08
531,sandnessjoen,66.0217,12.6316,60.8,68,73,5.31,NO,2024-06-08
532,miandrivazo,-19.5167,45.4667,69.8,74,0,1.86,MG,2024-06-08
533,tshabong,-26.05,22.45,53.6,36,0,3.86,BW,2024-06-08
534,n'zeto,-7.2312,12.8666,71.6,88,100,3.4,AO,2024-06-08
535,mccook,40.2019,-100.6257,75.2,60,0,8.23,US,2024-06-08
536,katsuren-haebaru,26.3369,127.8719,78.8,99,75,5.14,JP,2024-06-08
537,fale old settlement,-9.3852,-171.2468,82.4,71,85,2.42,TK,2024-06-08
538,majene,-3.5403,118.9707,77.0,92,100,2.89,ID,2024-06-08
539,novyy urgal,51.0736,132.5642,51.8,94,100,1.89,RU,2024-06-08
540,motueka,-41.1333,173.0167,50.0,93,100,1.25,NZ,2024-06-08
541,bathsheba,13.2167,-59.5167,86.0,79,40,9.77,BB,2024-06-08
542,karibib,-21.9333,15.8333,60.8,24,63,4.67,NA,2024-06-08
543,trairi,-3.2778,-39.2689,80.6,87,33,3.71,BR,2024-06-08
544,keningau,5.3378,116.1602,71.6,100,100,0.82,MY,2024-06-08
545,dokkum,53.3222,5.997,55.4,73,3,4.12,NL,2024-06-08
546,shimoda,34.6667,138.95,64.4,83,100,1.61,JP,2024-06-08
547,tondano,1.3038,124.9112,68.0,96,100,0.82,ID,2024-06-08
548,rakops,-21.0167,24.3333,59.0,54,0,7.58,BW,2024-06-08
549,chokwe,-24.5333,32.9833,62.6,61,64,2.72,MZ,2024-06-08
550,marquette,46.5333,-87.6335,64.4,59,13,5.38,US,2024-06-08
551,laguna,38.421,-121.4238,77.0,54,0,2.06,US,2024-06-08
552,tubarjal,30.4999,38.216,93.2,13,0,5.8,SA,2024-06-08
553,new kingman-butler,35.265,-114.0323,95.0,11,0,9.26,US,2024-06-08
554,progreso,21.2833,-89.6667,84.2,88,0,7.37,MX,2024-06-08
555,el bauga,18.262,33.9081,100.4,16,0,3.46,SD,2024-06-08
556,conception bay south,47.4999,-52.9981,62.6,74,26,2.39,CA,2024-06-08
557,olinda,-8.0089,-34.8553,84.2,79,40,5.14,BR,2024-06-08
558,la'ie,21.6477,-157.9253,80.6,77,3,2.68,US,2024-06-08
559,itapemirim,-21.0111,-40.8339,75.2,73,1,4.48,BR,2024-06-08
560,revuca,48.6835,20.1173,64.4,89,100,1.56,SK,2024-06-08
561,belem do brejo do cruz,-6.1886,-37.5358,93.2,35,66,3.93,BR,2024-06-08
562,yemetsk,63.4721,41.7941,51.8,96,98,2.28,RU,2024-06-08
563,petite riviere,-20.1894,57.4453,69.8,94,27,5.63,MU,2024-06-08
564,dom pedrito,-30.9828,-54.6731,73.4,81,100,3.38,BR,2024-06-08
565,darwin,-12.4611,130.8418,62.6,59,3,3.6,AU,2024-06-08
566,chak two hundred forty-nine thal development authority,31.1796,71.2095,89.6,26,1,2.32,PK,2024-06-08
567,sarkand,45.41,79.9186,68.0,42,100,3.64,KZ,2024-06-08
568,preston,53.7667,-2.7167,55.4,75,6,5.14,GB,2024-06-08
569,burley,42.5357,-113.7928,82.4,35,0,2.57,US,2024-06-08
570,acajutla,13.5928,-89.8275,82.4,75,100,1.84,SV,2024-06-08
571,anatuya,-28.4606,-62.8347,91.4,25,67,9.59,AR,2024-06-08
572,zhanaozen,43.3,52.8,77.0,37,99,4.46,KZ,2024-06-08
573,nha trang,12.25,109.1833,82.4,80,100,2.35,VN,2024-06-08
574,kisangani,0.5167,25.2,78.8,65,100,0.23,CD,2024-06-08
575,ravar,31.2656,56.8055,80.6,8,0,2.55,IR,2024-06-08
576,colonia menno,-22.3667,-59.8167,95.0,21,99,10.34,PY,2024-06-08
577,taltal,-25.4,-70.4833,62.6,76,87,2.88,CL,2024-06-08
578,nouadhibou,20.931,-17.0347,73.4,73,20,9.77,MR,2024-06-08
579,sittwe,20.15,92.9,82.4,87,100,4.19,MM,2024-06-08
580,aykhal,66.0,111.5,53.6,86,40,3.31,RU,2024-06-08
581,mach,29.8637,67.3298,80.6,29,0,2.24,PK,2024-06-08
582,arraial do cabo,-22.9661,-42.0278,77.0,73,0,6.17,BR,2024-06-08
583,correntina,-13.3433,-44.6367,87.8,27,55,3.39,BR,2024-06-08
584,paungde,18.4833,95.5,80.6,80,100,1.8,MM,2024-06-08
585,novoanninskiy,50.5287,42.6747,68.0,77,0,2.62,RU,2024-06-08
